lon,lat,name,address,pname,cityname,business_area,type
114.56140884357333,30.663012284879624,中国银行(阳逻开发区支行),阳光大道210号,湖北省,武汉市,阳逻,金融保险服务;银行;中国银行
114.57382735951663,30.691506996148032,武汉农村商业银行(长江新区支行),圆梦南路新港财富广场7号楼,湖北省,武汉市,长江新区,金融保险服务;银行;农村商业银行
114.7978518904028,30.835098511079725,中国农业银行(武汉新洲支行),齐安大道104号,湖北省,武汉市,邾城,金融保险服务;银行;中国农业银行
114.78996554753742,30.828778711404134,武汉农村商业银行(新洲支行),龙腾大街50号,湖北省,武汉市,,金融保险服务;银行;农村商业银行
114.7988956236919,30.849268245360552,中国银行(武汉新洲支行),齐安大道350号,湖北省,武汉市,邾城,金融保险服务;银行;中国银行
114.56214634125898,30.661159120949353,交通银行(武汉阳逻支行),平江东路35号,湖北省,武汉市,长江新区,金融保险服务;银行;交通银行
114.56294044833093,30.664873515712365,中国建设银行(阳逻开发区支行),阳逻经济开发区阳光大道238号,湖北省,武汉市,阳逻,金融保险服务;银行;中国建设银行
114.56380958682684,30.705426733863007,中国建设银行(阳逻电力支行),汉施路66号(阳逻开发区地铁站C口步行210米),湖北省,武汉市,长江新区,金融保险服务;银行;中国建设银行
114.55853786507247,30.656863883505093,中国农业银行(阳逻支行),阳逻街阳光大道68号,湖北省,武汉市,长江新区,金融保险服务;银行;中国农业银行
114.56098302611368,30.663363535366358,中国工商银行(武汉阳逻开发区支行),阳逻街阳光大道297号,湖北省,武汉市,长江新区,金融保险服务;银行;中国工商银行
114.8073292336018,30.834915928474746,湖北银行(武汉新洲支行),衡州大街205号武汉市新洲区司法局旁,湖北省,武汉市,邾城,金融保险服务;银行;银行
114.80158594656007,30.846642268533444,中国工商银行(新洲支行),新洲大街124号,湖北省,武汉市,邾城,金融保险服务;银行;中国工商银行
114.80330327135884,30.846612242364067,中国建设银行(武汉新洲支行),新洲大街134号,湖北省,武汉市,邾城,金融保险服务;银行;中国建设银行
114.80947206080123,30.840816469173348,中国银行武汉龙腾大道支行,南安街与文昌大道交叉口东220米,湖北省,武汉市,邾城,金融保险服务;银行;中国银行
114.79773365478093,30.835300203639523,中国农业银行(武汉新洲支行),邾城街邾城新区衡州大街95号,湖北省,武汉市,邾城,金融保险服务;银行;中国农业银行
114.57354091725946,30.692682199321254,中国工商银行(武汉圆梦路支行),保利·圆梦城二区西2门东南120米,湖北省,武汉市,长江新区,金融保险服务;银行;中国工商银行
114.571422504747,30.677396424023442,中国农业银行(武汉新阳支行),阳逻街鑫富林阳光919号,湖北省,武汉市,长江新区,金融保险服务;银行;中国农业银行
114.56467902734187,30.705844627907528,中国农业银行(武汉润阳支行),阳逻经济开发区余泊北路特1号,湖北省,武汉市,长江新区,金融保险服务;银行;中国农业银行
114.57307022904094,30.682006792183337,湖北银行(武汉阳逻支行),阳逻街阳光大道969号,湖北省,武汉市,长江新区,金融保险服务;银行;银行
114.56858701672384,30.671697172569967,中国建设银行(阳逻东风路支行),阳逻街阳光大道669号,湖北省,武汉市,长江新区,金融保险服务;银行;中国建设银行
114.56374263909993,30.703415616878143,中国工商银行(武汉新阳支行),余泊南路华阳大酒店旁,湖北省,武汉市,长江新区,金融保险服务;银行;中国工商银行
114.8029400799,30.840559030703677,中国邮政储蓄银行(新洲区支行),永安大道19号,湖北省,武汉市,邾城,金融保险服务;银行;中国邮政储蓄银行
114.55980997030403,30.66140773983293,武汉农村商业银行(高潮支行),阳逻街阳光大道249号,湖北省,武汉市,阳逻,金融保险服务;银行;农村商业银行
114.7991402296736,30.83579325434375,中国工商银行(新洲大道支行),衡州大街164号,湖北省,武汉市,邾城,金融保险服务;银行;中国工商银行
114.79760873370073,30.84340443700707,汉口银行(新洲支行),红旗街29-7号,湖北省,武汉市,邾城,金融保险服务;银行;银行
114.5646602506744,30.666726881485765,中国邮政储蓄银行(阳逻支行),阳逻新阳大道,湖北省,武汉市,阳逻,金融保险服务;银行;中国邮政储蓄银行
114.79352601987408,30.835977087843066,中国建设银行(武汉衡州支行),衡洲大道46号,湖北省,武汉市,邾城,金融保险服务;银行;中国建设银行
114.79181721931363,30.845819910781675,中国工商银行(武汉邾城支行),新洲大街29号,湖北省,武汉市,邾城,金融保险服务;银行;中国工商银行
114.79888029045239,30.841106832588295,武汉农村商业银行(邾城支行),齐安大道13号,湖北省,武汉市,邾城,金融保险服务;银行;农村商业银行
114.80753300132619,30.830697656012152,中国工商银行(武汉龙腾支行),龙腾大街常阳新城小区T2栋-1号1层,湖北省,武汉市,,金融保险服务;银行;中国工商银行
114.56518287063805,30.70577128337054,汉口银行(阳逻开发区支行),阳逻经济开发区汉施路特1号,湖北省,武汉市,长江新区,金融保险服务;银行;银行
114.59847350198892,30.837324017905885,中国建设银行(武汉仓埠支行),骑云街1号,湖北省,武汉市,长江新区,金融保险服务;银行;中国建设银行
114.57265563595165,30.70697659328614,武汉农村商业银行(新港支行),阳逻经济开发区圆梦北路花园村风荷苑小区,湖北省,武汉市,长江新区,金融保险服务;银行;农村商业银行
114.79419533508978,30.846101429720136,中国农业银行(武汉邾城支行),邾城街道办事处新洲大街78号,湖北省,武汉市,邾城,金融保险服务;银行;中国农业银行
114.79817136399612,30.836484259265852,中国建设银行(武汉凤凰台支行),衡州大道100号新洲摩尔城1F层,湖北省,武汉市,邾城,金融保险服务;银行;中国建设银行
114.64273961482921,30.592008727354276,中国农业银行(武汉双柳支行),双柳街道办事处刘镇街14号,湖北省,武汉市,双柳,金融保险服务;银行;中国农业银行
114.7985964446687,30.83307687378326,中国农业发展银行(新洲区支行),齐安大道159号,湖北省,武汉市,邾城,金融保险服务;银行;银行
114.56478119340234,30.70590172695681,中国农业银行24小时自助银行(武汉润阳支行),阳逻经济开发区余泊北路特1号,湖北省,武汉市,长江新区,金融保险服务;自动提款机;中国农业银行ATM
114.5741797677696,30.691623234103304,兴业银行(武汉长江新区支行),阳逻街柴泊大街12号新港财富广场1栋234商铺,湖北省,武汉市,长江新区,金融保险服务;银行;兴业银行
114.56926108707984,30.67061037909204,中国邮政储蓄银行(高新街营业所),高新街1号,湖北省,武汉市,阳逻,金融保险服务;银行;中国邮政储蓄银行
114.79024942209732,30.929361293732605,中国农业银行(武汉三店支行),三店街龙丘大道495号,湖北省,武汉市,,金融保险服务;银行;中国农业银行
114.79545056030923,30.846258330508892,中国建设银行(武汉邾城支行),新洲大街94号,湖北省,武汉市,邾城,金融保险服务;银行;中国建设银行
114.5622629976937,30.655789662753946,武汉农村商业银行(长江支行),汽渡路109号,湖北省,武汉市,长江新区,金融保险服务;银行;农村商业银行
114.80744811994694,30.83906081214292,武汉农村商业银行(辛冲支行),文昌大道与向阳路交叉口北120米,湖北省,武汉市,邾城,金融保险服务;银行;农村商业银行
114.55922997260346,30.659910560195254,中国建设银行24小时自助银行(东风路储蓄所),阳光大道201-203号,湖北省,武汉市,阳逻,金融保险服务;自动提款机;中国建设银行ATM
114.57497969872179,30.691540916874256,中国邮政储蓄银行,柴泊大道与红岭路交叉口西180米,湖北省,武汉市,长江新区,金融保险服务;银行;中国邮政储蓄银行
114.79876716588082,30.840088218480133,中国邮政储蓄银行(城南支行),齐安大道61号,湖北省,武汉市,邾城,金融保险服务;银行;中国邮政储蓄银行
114.56217114974721,30.663999882847126,汉口银行(阳逻港支行),阳光大道220号,湖北省,武汉市,阳逻,金融保险服务;银行;银行
114.52750747798629,30.710669426511327,武汉农村商业银行(界埠支行),阳逻街,湖北省,武汉市,长江新区,金融保险服务;银行;农村商业银行
114.70455284547027,30.78189843956039,武汉农村商业银行(汪集支行),汪兴路149号,湖北省,武汉市,汪集,金融保险服务;银行;农村商业银行
114.60124640331216,30.832646767917325,中国农业银行武汉仓埠支行,仓埠街开源街9号明峰嘉苑8栋1-2层11-12号,湖北省,武汉市,长江新区,金融保险服务;银行;中国农业银行
114.8076641414853,30.84391446290111,中国农业银行(武汉文昌支行),齐安大道大街口,湖北省,武汉市,邾城,金融保险服务;银行;中国农业银行
114.79728764616128,30.849229616649367,武汉农村商业银行(北城支行),邾城街80号,湖北省,武汉市,邾城,金融保险服务;银行;农村商业银行
114.56364646522262,30.70351144730823,中国工商银行24小时自助银行,余泊大道与汉施大道交叉口西60米,湖北省,武汉市,长江新区,金融保险服务;自动提款机;中国工商银行ATM
114.61128601257055,30.790531141636347,武汉农村商业银行(周铺支行),仓埠街周铺村周铺商场,湖北省,武汉市,长江新区,金融保险服务;银行;农村商业银行
114.64388473681508,30.589279822537495,中国邮政储蓄银行(双柳营业所),双柳街,湖北省,武汉市,双柳,金融保险服务;银行;中国邮政储蓄银行
114.97308785516577,30.945844356162713,武汉农村商业银行(徐古支行),徐古社区5号(徐古街道财政所东北),湖北省,武汉市,,金融保险服务;银行;农村商业银行
114.64510426662885,30.59162382461909,武汉农村商业银行(双柳支行),学林路160号,湖北省,武汉市,双柳,金融保险服务;银行;农村商业银行
114.66916300002875,30.87652672411338,中国邮政储蓄银行(武汉市李集营业所),李集街影院街道3号,湖北省,武汉市,新洲区李集未草刘湾(城区外),金融保险服务;银行;中国邮政储蓄银行
114.7065989430608,30.77930304427718,中国农业银行(武汉汪集支行),汪集街汪盛路88号,湖北省,武汉市,汪集,金融保险服务;银行;中国农业银行
114.78487394167315,30.92794049553225,武汉农村商业银行营业厅,龙丘大街385号,湖北省,武汉市,,金融保险服务;银行;农村商业银行
114.6356591571686,30.899234948409298,武汉市农村商业银行(方杨支行),仓埠街林岗街道,湖北省,武汉市,,金融保险服务;银行;农村商业银行
114.52216958994607,30.711281075942615,中国建设银行24小时自助银行(汉施路辅路支行),汉施路1号武汉生物工程学院附近,湖北省,武汉市,长江新区,金融保险服务;自动提款机;中国建设银行ATM
114.9207411380165,30.83629491818677,中国农业银行(旧街分理处),武政路5号,湖北省,武汉市,旧街,金融保险服务;银行;中国农业银行
114.56298852762436,30.66493854971326,中国建设银行24小时自助银行(阳逻开发区支行),阳逻经济开发区阳光大道238号,湖北省,武汉市,长江新区,金融保险服务;自动提款机;中国建设银行ATM
114.66803258412851,30.874433097454137,中国农业银行(新洲李集支行),府场街36号,湖北省,武汉市,,金融保险服务;银行;中国农业银行
114.55824724007935,30.657422197993643,中国工商银行24小时自助银行(武汉新阳支行),阳光大道113-115,湖北省,武汉市,阳逻,金融保险服务;自动提款机;中国工商银行ATM
114.79565817173695,30.843470238129367,中国建设银行(武汉邾城支行),农业农村局北门西150米,湖北省,武汉市,邾城,金融保险服务;银行;中国建设银行
114.79189232388657,30.846101865607434,中国邮政储蓄银行(邾城支行),新洲大街46号,湖北省,武汉市,邾城,金融保险服务;银行;中国邮政储蓄银行
114.7520389362813,30.927425287805036,中国农业银行(武汉凤凰支行),凤凰镇凤亭大道1号附1号,湖北省,武汉市,,金融保险服务;银行;中国农业银行
114.8018785352988,30.84633394349356,汉口银行(新洲大街社区支行),新洲大街71附近,湖北省,武汉市,邾城,金融保险服务;银行;银行
114.80755493100806,30.843807327721365,中国农业银行24小时自助银行(武汉文昌支行),文昌大道237号(近龙城华庭),湖北省,武汉市,邾城,金融保险服务;自动提款机;中国农业银行ATM
114.55988909915648,30.661683731050594,武汉农村商业银行24小时自助银行(高潮支行),阳逻街阳光大道249号,湖北省,武汉市,长江新区,金融保险服务;自动提款机;农村商业银行ATM
114.56093093480247,30.66329449335566,中国工商银行24小时自助银行(阳逻开发区支行),阳光大道297号,湖北省,武汉市,阳逻,金融保险服务;自动提款机;中国工商银行ATM
114.57398254776203,30.691466145025668,武汉农村商业银行24小时自助银行(阳逻经济开发区支行),柴泊大道阳逻财富广场,湖北省,武汉市,长江新区,金融保险服务;自动提款机;农村商业银行ATM
114.59900544767497,30.837208940092076,武汉农村商业银行(仓埠支行),骑云街32号,湖北省,武汉市,长江新区,金融保险服务;银行;农村商业银行
114.78529256431268,30.92814894141698,中国邮政储蓄银行(三店营业所),龙丘大街391号,湖北省,武汉市,,金融保险服务;银行;中国邮政储蓄银行
114.70443950354915,30.77626260119983,中国邮政储蓄银行(汪集营业所),生生路31号,湖北省,武汉市,汪集,金融保险服务;银行;中国邮政储蓄银行
114.5645841330876,30.666605841387174,中国邮政储蓄银行24小时自助银行(阳逻支行),阳逻新阳大道,湖北省,武汉市,阳逻,金融保险服务;自动提款机;中国邮政储蓄银行ATM
114.91885770484237,30.83604501684954,武汉农村商业银行(旧街支行),康阳街44号,湖北省,武汉市,旧街,金融保险服务;银行;农村商业银行
114.56199907984598,30.661102946726412,交通银行24小时自助银行(武汉阳逻支行),平江东路35号,湖北省,武汉市,阳逻,金融保险服务;自动提款机;交通银行ATM
114.59823048947948,30.837765830652085,中国邮政储蓄银行(武汉市仓埠支行),仓埠街,湖北省,武汉市,长江新区,金融保险服务;银行;中国邮政储蓄银行
114.73797217421573,30.855653894630105,武汉农村商业银行(张店支行),张店西街210号,湖北省,武汉市,,金融保险服务;银行;农村商业银行
114.92066022725369,30.836578845992026,中国邮政储蓄银行(武汉市旧街营业所),武政路41号,湖北省,武汉市,旧街,金融保险服务;银行;中国邮政储蓄银行
114.7953874370046,30.846374164173504,中国建设银行24小时自助银行(武汉邾城支行),新洲大街94号,湖北省,武汉市,邾城,金融保险服务;自动提款机;中国建设银行ATM
114.5725194565669,30.70706842712519,武汉农村商业银行24小时自助银行(新港支行),农村商业银行(圆梦北路东),湖北省,武汉市,长江新区,金融保险服务;自动提款机;农村商业银行ATM
114.80757198397875,30.843587482393257,中国工商银行24小时自助银行(文昌大道),邾城街文昌大道东龙城华庭三期1号,湖北省,武汉市,邾城,金融保险服务;自动提款机;中国工商银行ATM
114.75293017623756,30.92790225732877,武汉农村商业银行(凤凰支行),三杨路与新凤大道交叉口西20米,湖北省,武汉市,,金融保险服务;银行;农村商业银行
114.66480724206325,30.592665952584593,中国建设银行24小时自助银行,347国道与兴龙街交叉口东南220米,湖北省,武汉市,,金融保险服务;自动提款机;中国建设银行ATM
114.6626370363452,30.80373519735924,武汉农村商业银行(孔埠支行),汪集街孔埠大道26号,湖北省,武汉市,,金融保险服务;银行;农村商业银行
114.7355888077742,30.612600703456057,武汉农村商业银行(大埠支行),刘镇街63号,湖北省,武汉市,,金融保险服务;银行;农村商业银行
114.79213361033146,30.67123064825054,中国邮政储蓄银行(涨渡湖支行),沐家泾北街47号,湖北省,武汉市,,金融保险服务;银行;中国邮政储蓄银行
114.8893505345194,30.999097209074566,武汉农村商业银行(潘塘支行),潘塘路93号,湖北省,武汉市,潘塘,金融保险服务;银行;农村商业银行
114.79570225127571,30.843469309284462,中国建设银行24小时自助银行(邾城支行),农业农村局北门西140米,湖北省,武汉市,邾城,金融保险服务;自动提款机;中国建设银行ATM
114.79762677284064,30.843335505497105,汉口银行24小时自助银行(新洲支行),红旗街4号附近,湖北省,武汉市,邾城,金融保险服务;自动提款机;自动提款机
114.9462571103001,30.89732060765881,武汉农村商业银行(新集支行),集宝路74号,湖北省,武汉市,,金融保险服务;银行;农村商业银行
114.79936865882989,30.835787638819998,中国工商银行24小时自助银行(新洲大道支行),衡州大街164号,湖北省,武汉市,邾城,金融保险服务;自动提款机;中国工商银行ATM
114.89000114590563,30.993523663916626,中国邮政储蓄银行(武汉市潘塘营业所),潘塘街潘塘路226号,湖北省,武汉市,,金融保险服务;银行;中国邮政储蓄银行
114.79743090718411,30.84925783487091,武汉农村商业银行24小时自助银行(北城支行),邾城街80号,湖北省,武汉市,邾城,金融保险服务;自动提款机;农村商业银行ATM
114.56935723239333,30.670520519868717,中国邮政储蓄银行24小时自助银行(高新街营业所),阳光大道615号佳阳·摩尔城,湖北省,武汉市,长江新区,金融保险服务;自动提款机;中国邮政储蓄银行ATM
114.78992344962019,30.82910546670251,武汉农村商业银行24小时自助银行(新洲支行),人民路98号,湖北省,武汉市,,金融保险服务;自动提款机;农村商业银行ATM
114.81690984185919,30.776862262729914,武汉农村商业银行(辛溪支行),辛冲街道正街180号,湖北省,武汉市,,金融保险服务;银行;农村商业银行
114.70667882172316,30.77932592582325,中国农业银行24h自助银行服务(汪集分理处),汪盛路141号汪集购物中心,湖北省,武汉市,汪集,金融保险服务;自动提款机;中国农业银行ATM
114.86175653972809,30.814213877137643,武汉农村商业银行(四合庄支行),四合庄路46号,湖北省,武汉市,,金融保险服务;银行;农村商业银行
114.5613567385545,30.663121164056776,中国银行24小时自助银行(武汉阳逻开发区支行),阳光大道210号,湖北省,武汉市,阳逻,金融保险服务;自动提款机;中国银行ATM
114.66894352684061,30.87582454924076,武汉农村商业银行(李集支行),影院街2号李集中心商场,湖北省,武汉市,新洲区李集未草刘湾(城区外),金融保险服务;银行;农村商业银行
114.64547956839145,30.591527209821024,中国工商银行24小时自助银行(新洲支行学林路)(装修中),双柳街学林路151号,湖北省,武汉市,双柳,金融保险服务;自动提款机;中国工商银行ATM
114.97264521945492,30.947865430313396,中国邮政储蓄银行(武汉市徐古营业所),徐古街道徐古镇徐古社区20号,湖北省,武汉市,,金融保险服务;银行;中国邮政储蓄银行
114.79433959042237,30.846102656022563,中国农业银行24小时自助银行(邾城支行),新洲大街78号,湖北省,武汉市,邾城,金融保险服务;自动提款机;中国农业银行ATM
114.55665933162932,30.665522124401885,鑫象财税,平江大道平江西路,湖北省,武汉市,长江新区,金融保险服务;银行;银行
114.97975002549838,30.878974006832813,武汉农村商业银行24小时自助银行,旅游大道与东平街交叉口东140米,湖北省,武汉市,,金融保险服务;自动提款机;农村商业银行ATM
114.80289373518032,30.831800868860217,中国邮政储蓄银行(龙腾营业所),龙腾大街174号,湖北省,武汉市,邾城,金融保险服务;银行;中国邮政储蓄银行
114.5215899958829,30.718513970137412,中国银行24小时自助银行,汉施大道1号附近,湖北省,武汉市,长江新区,金融保险服务;自动提款机;中国银行ATM
114.80297489281645,30.8318010091264,中国邮政储蓄银行24小时自助银行(龙腾营业所),龙腾大街174号,湖北省,武汉市,邾城,金融保险服务;自动提款机;中国邮政储蓄银行ATM
114.56679151260123,30.656991782913636,新洲区正街邮政储蓄24小时自助银行,平江东路181号,湖北省,武汉市,长江新区,金融保险服务;自动提款机;中国邮政储蓄银行ATM
114.79886826729776,30.841114808103487,武汉农村商业银行24小时自助银行(邾城支行),齐安大道13号,湖北省,武汉市,邾城,金融保险服务;自动提款机;农村商业银行ATM
114.56234213801076,30.65581075976676,武汉农村商业银行24小时自助银行(长江支行),汽渡路109号,湖北省,武汉市,阳逻,金融保险服务;自动提款机;农村商业银行ATM
114.70460223843942,30.776397303793647,中国邮政储蓄银行24小时自助银行,生生路31号,湖北省,武汉市,汪集,金融保险服务;自动提款机;中国邮政储蓄银行ATM
114.55914983186724,30.659722525733244,中国建设银行,阳逻开发区阳光大道中百仓储斜对面开发大厦,湖北省,武汉市,阳逻,金融保险服务;银行;中国建设银行
114.56808651648693,30.656740346858264,中国工商银行24小时自助银行(军安路自助银行),军安道275号,湖北省,武汉市,长江新区,金融保险服务;自动提款机;中国工商银行ATM
114.5766178873455,30.686697420998147,澳德财务,阳光大道796附68号S1615商铺,湖北省,武汉市,长江新区,金融保险服务;银行;银行
114.59891346760877,30.837115018367363,武汉农村商业银行24小时自助银行(仓埠支行),骑云街32号,湖北省,武汉市,长江新区,金融保险服务;自动提款机;农村商业银行ATM
114.70450491289844,30.78198346059967,武汉农村商业银行24小时自助银行(汪集支行),汪兴路149号,湖北省,武汉市,汪集,金融保险服务;自动提款机;农村商业银行ATM
114.66780306932039,30.874472515206396,中国农业银行ATM(新洲李集分理处),府场街36号,湖北省,武汉市,,金融保险服务;自动提款机;中国农业银行ATM
114.73803514888682,30.85572583672696,武汉农村商业银行24小时自助银行(张店支行),新李路武汉农村商业银行(张店支行),湖北省,武汉市,,金融保险服务;自动提款机;农村商业银行ATM
114.07422832189893,30.311158050437815,中国建设银行(武汉汉南支行),育才路1号,湖北省,武汉市,纱帽,金融保险服务;银行;中国建设银行
114.0771709947391,30.311606775963654,中国工商银行(武汉汉南支行),汉南大道315号附3号,湖北省,武汉市,纱帽,金融保险服务;银行;中国工商银行
114.07334569840216,30.308857061384387,中国银行(武汉薇湖支行),纱帽镇薇湖路259号,湖北省,武汉市,纱帽,金融保险服务;银行;中国银行
114.07491143331941,30.30868978785323,中国农业银行(武汉汉南支行),薇湖路99号,湖北省,武汉市,纱帽,金融保险服务;银行;中国农业银行
114.07549616265614,30.310938071261244,中国银行(汉南支行),汉南大道388号,湖北省,武汉市,纱帽,金融保险服务;银行;中国银行
114.07442030286876,30.31100691137163,中国建设银行24小时自助银行(武汉汉南支行),纱帽汉南大道275号(近武汉汉南客运站),湖北省,武汉市,纱帽,金融保险服务;自动提款机;中国建设银行ATM
114.0728346570059,30.321988917401207,汉口银行(汉南支行),兴城大道400号,湖北省,武汉市,纱帽,金融保险服务;银行;银行
114.06583773209195,30.309444715431965,中国邮政储蓄银行,纱帽街薇湖水岸德成广场33号楼107号1层,湖北省,武汉市,纱帽,金融保险服务;银行;中国邮政储蓄银行
114.07839295066087,30.312241893133965,中国农业银行(武汉纱帽支行),汉南大道500号,湖北省,武汉市,纱帽,金融保险服务;银行;中国农业银行
114.07464141321094,30.309361925022177,武汉农村商业银行(纱帽支行),汉南大道328号,湖北省,武汉市,纱帽,金融保险服务;银行;农村商业银行
114.07558915123168,30.31095599829268,中国银行股份有限公司湖北省分行武汉经济技术开发区支行汉南支行(爱心驿站),纱帽街汉南大道386-388号,湖北省,武汉市,纱帽,金融保险服务;银行;中国银行
114.07974872173271,30.316007623993244,中国邮政储蓄银行(纱帽支行),汉南大道543-545号,湖北省,武汉市,纱帽,金融保险服务;银行;中国邮政储蓄银行
114.07787195329188,30.312047252326128,武汉农村商业银行汉南支行营业室,[],湖北省,武汉市,纱帽,金融保险服务;银行;农村商业银行
114.07725998992335,30.311641710737806,中国工商银行24小时自助银行(汉南支行),汉南大道315号附3号,湖北省,武汉市,纱帽,金融保险服务;自动提款机;中国工商银行ATM
114.07971276862207,30.315431714437082,武汉农村商业银行(汉南支行),汉南大道与月亮湾路交叉口西南80米,湖北省,武汉市,纱帽,金融保险服务;银行;农村商业银行
114.07535517400339,30.310988173560713,中国银行24小时自助银行(汉南支行),汉南大道388号,湖北省,武汉市,纱帽,金融保险服务;自动提款机;中国银行ATM
114.07827196562592,30.312019996372296,中国农业银行24小时自助银行(纱帽支行),汉南大道506号,湖北省,武汉市,纱帽,金融保险服务;自动提款机;中国农业银行ATM
114.07980574248334,30.315845611114245,中国邮政储蓄银行24小时自助银行(纱帽支行),汉南大道543-545号,湖北省,武汉市,纱帽,金融保险服务;自动提款机;中国邮政储蓄银行ATM
113.98207822380965,30.305300145333625,武汉农村商业银行(邓南支行),振兴街90号,湖北省,武汉市,,金融保险服务;银行;农村商业银行
113.84840918241498,30.264408907857117,武汉市农村商业银行(湘口支行),汉南农场晨曦路17号,湖北省,武汉市,,金融保险服务;银行;农村商业银行
113.84890543301064,30.264776679619604,中国邮政储蓄银行(湘口支行),湘口街晨曦路66号,湖北省,武汉市,,金融保险服务;银行;中国邮政储蓄银行
114.15484165555793,30.49226711748582,招商银行(武汉经济技术开发区支行),沌口开发区创业路2号(沌阳大道地铁站B口步行410米),湖北省,武汉市,沌口,金融保险服务;银行;招商银行
114.15523774805118,30.492671727288034,中国工商银行(武汉经济技术开发区支行),经济技术开发区创业路26号,湖北省,武汉市,沌口,金融保险服务;银行;中国工商银行
114.02640254837367,30.58147589102502,中国工商银行(蔡甸支行),汉阳大街80号,湖北省,武汉市,,金融保险服务;银行;中国工商银行
114.02357313147847,30.58028286662252,中国银行(蔡甸支行),新福路33号,湖北省,武汉市,,金融保险服务;银行;中国银行
114.17049327745646,30.509782198947807,中国工商银行(万达支行),东风大道103号(经开万达广场)四环高级写字楼1-2层G79-G83号,湖北省,武汉市,沌口,金融保险服务;银行;中国工商银行
114.1582711451109,30.495933386241905,中国银行(武汉经济技术开发区支行),经济技术开发区神龙大道109号绿岛大厦A座,湖北省,武汉市,沌口,金融保险服务;银行;中国银行
114.15655539296952,30.494013765306786,交通银行(武汉经济技术开发区支行),经济技术开发区创业路16号华源商务广场A座1层,湖北省,武汉市,沌口,金融保险服务;银行;交通银行
114.15739070383533,30.494948039289408,中国建设银行(开发区支行营业部),经济技术开发区创业路8号,湖北省,武汉市,沌口,金融保险服务;银行;中国建设银行
114.03346676013781,30.57786135590661,中国农业银行(蔡甸支行营业室),汉阳大街110号(蔡甸广场地铁站D口步行400米),湖北省,武汉市,,金融保险服务;自动提款机;中国农业银行ATM|金融保险服务;银行;中国农业银行
114.02285682189743,30.58010686904534,中国建设银行(武汉新福路支行),蔡甸街新福路492号,湖北省,武汉市,,金融保险服务;银行;中国建设银行
114.15945848718174,30.50823096551984,招商银行(武汉车谷支行),东风二路东合中心H栋,湖北省,武汉市,沌口,金融保险服务;银行;招商银行
114.15704059827691,30.507554683368355,中国建设银行(东风支行),东风三路泰合百花园A区2栋1层,湖北省,武汉市,沌口,金融保险服务;银行;中国建设银行
114.03302794598487,30.574543647594385,武汉市农村商业银行(蔡甸支行),蔡甸大街230号(蔡甸广场地铁站A口步行340米),湖北省,武汉市,,金融保险服务;银行;农村商业银行
114.15695447324467,30.494724297479916,汉口银行(武汉经济技术开发区支行),经济技术开发区创业路12号嘉昱公馆A座,湖北省,武汉市,沌口,金融保险服务;银行;银行
114.1523428660582,30.4889705111308,中国农业银行(武汉开发区支行),经济技术开发区创业路50号银城大厦1层,湖北省,武汉市,沌口,金融保险服务;银行;中国农业银行
114.15673363393985,30.497092205877138,中信银行(武汉开发区支行),经济技术开发区神龙大道117号,湖北省,武汉市,沌口,金融保险服务;银行;中信银行
114.16915735463812,30.510500475332208,中国农业银行(武汉东风支行),东风大道105附131-136号,湖北省,武汉市,沌口,金融保险服务;银行;中国农业银行
114.152174787058,30.495887233974976,中国建设银行(沌阳支行),联城路25号东风·新城商业广场F1层,湖北省,武汉市,沌口,金融保险服务;银行;中国建设银行
114.05602911603377,30.567433084276818,招商银行(中法生态城支行),蔡甸经济开发区凤凰山事处凤凰路1号中核世纪广场,湖北省,武汉市,,金融保险服务;银行;招商银行
114.03526045078691,30.57491613230865,中国建设银行(武汉蔡甸支行),蔡甸街金家新都汇第1栋(蔡甸广场),湖北省,武汉市,,金融保险服务;银行;中国建设银行
114.15696614824881,30.510261728786304,中国工商银行(东风支行),东风三路15号东合中心F1层,湖北省,武汉市,沌口,金融保险服务;银行;中国工商银行
114.15764627653446,30.508223602240964,浦发银行(沌口支行),沌口经济开发区东风三路3号东合中心C座,湖北省,武汉市,沌口,金融保险服务;银行;上海浦东发展银行
114.1525915116463,30.48960578085323,湖北银行(武汉经济技术开发区支行),沌口街道沌阳大道409号武汉建工科技中心裙楼一层,湖北省,武汉市,沌口,金融保险服务;银行;银行
114.15299861744425,30.490106375894655,兴业银行(武汉开发区支行),经济技术开发区武汉建工科技中心裙楼1层,湖北省,武汉市,沌口,金融保险服务;银行;兴业银行
114.1455899552952,30.49119198359142,武汉农村商业银行(郭蔡路支行),经济技术开发区沌口街道联城路71号,湖北省,武汉市,沌口,金融保险服务;银行;农村商业银行
114.15054248379883,30.492716217495495,中国邮政储蓄银行(沌阳营业所),沌阳大道402号(沌阳大道地铁站出入口步行60米),湖北省,武汉市,沌口,金融保险服务;银行;中国邮政储蓄银行
114.01074340270591,30.450133235877384,中国工商银行(奓山支行),奓山街联谊村还建社区15栋,湖北省,武汉市,,金融保险服务;银行;中国工商银行
114.16352002393533,30.499066283146497,中国建设银行24小时自助银行(神龙支行),宁康路69附14号(东风公司地铁站E2口步行410米),湖北省,武汉市,沌口,金融保险服务;自动提款机;中国建设银行ATM
114.15702751954451,30.508026517320697,中国银行(新江大支行),经济技术开发区东风三路泰合百花公园中央街1号商铺第1层,湖北省,武汉市,沌口,金融保险服务;银行;中国银行
114.15768041145945,30.49636016788815,华夏银行(武汉经济技术开发区支行),武汉经济技术开发区神龙街111号绿岛大厦,湖北省,武汉市,沌口,金融保险服务;银行;华夏银行
114.15484568994407,30.492005199538774,招商银行ATM(可口可乐饮料有限公司)(内部专用),经济技术开发区车城南路,湖北省,武汉市,沌口,金融保险服务;自动提款机;招商银行ATM
114.16056047204587,30.510443352213706,平安银行(武汉经济技术开发区支行),三角湖路4号附9号,湖北省,武汉市,沌口,金融保险服务;银行;平安银行
114.17458329199494,30.518352196419947,中国建设银行股份有限公司武汉创业支行爱心驿站(工会驿站),武汉市经济技术开发区东风大道71号附1号,湖北省,武汉市,沌口,金融保险服务;银行;中国建设银行
114.1509645158096,30.494418483620933,中国农业银行(沌阳支行),经济技术开发区联城路25号附15号,湖北省,武汉市,沌口,金融保险服务;银行;中国农业银行
114.15499508937422,30.492300388786116,中国民生银行(武汉沌口支行),经济技术开发区创业路28号,湖北省,武汉市,沌口,金融保险服务;银行;中国民生银行
114.0367256025813,30.575103617774264,中国农业银行(武汉新农分理处),蔡甸大街金家上城新都汇3号楼第3幢1单元1层5-10号,湖北省,武汉市,,金融保险服务;银行;中国农业银行
114.16869499413374,30.510764526863824,中国光大银行(武汉开发区支行),东风大道111号万达广场A区第S3栋1-3层,湖北省,武汉市,沌口,金融保险服务;银行;中国光大银行
114.18457827619716,30.530655380500686,中国工商银行(升官渡支行),武汉经济技术开发区东风大道11号,湖北省,武汉市,升官渡,金融保险服务;银行;中国工商银行
114.00661808722877,30.452006987952515,中国建设银行(奓山支行),奓山街道白鹤泉西街74号,湖北省,武汉市,,金融保险服务;银行;中国建设银行
114.1583232889256,30.496002463044718,中国银行武汉经济技术开发区支行工会驿站,武汉市经济技术开发区神龙大道109号,湖北省,武汉市,沌口,金融保险服务;银行;中国银行
114.03534932821943,30.574338133465588,中国工商银行(建新支行),蔡甸街茂兴路1号附2(蔡甸广场地铁站A口步行130米),湖北省,武汉市,,金融保险服务;银行;中国工商银行
114.17448600882095,30.518406998953747,中国建设银行(武汉创业支行),奥林花园商网3栋(三角湖地铁站A口旁),湖北省,武汉市,升官渡,金融保险服务;银行;中国建设银行
114.1127025349088,30.553232873814395,中国建设银行(中法新城支行),新天大道332号附1号,湖北省,武汉市,,金融保险服务;银行;中国建设银行
114.1554082414773,30.49258606436559,中国工商银行24小时自助银行(经济技术开发区支行),创业路26号(沌阳大道地铁站B口步行480米),湖北省,武汉市,沌口,金融保险服务;自动提款机;中国工商银行ATM
114.15765225190137,30.508701469280158,中信银行(东风支行),东风三路5号B座(东合中心大厦1层),湖北省,武汉市,沌口,金融保险服务;银行;中信银行
114.10517104482524,30.551725288728107,中国银行(武汉中法生态城支行),新天大道与五贤路交叉口东南100米,湖北省,武汉市,,金融保险服务;银行;中国银行
114.00554591170147,30.4523581060056,中国银行(武汉常福工业园支行),白鹤泉西路77号(奓山医院对面),湖北省,武汉市,,金融保险服务;银行;中国银行
114.14958541617824,30.48584645511798,武汉农村商业银行(经济技术开发区支行),经济技术开发区武银经开大厦,湖北省,武汉市,沌口,金融保险服务;银行;农村商业银行
114.02428805606887,30.5737203686716,汉口银行(蔡甸支行),蔡甸大街208号(临嶂大道地铁站C口步行190米),湖北省,武汉市,,金融保险服务;银行;银行
114.17520081691364,30.521117475679432,中国工商银行(金色港湾支行),武汉经济技术开发区东风大道68号附38号,湖北省,武汉市,升官渡,金融保险服务;银行;中国工商银行
114.00552108611771,30.45112648236904,中国农业银行(武汉奓山支行),奓山街奓山集正街72号,湖北省,武汉市,,金融保险服务;银行;中国农业银行
114.15688187113207,30.499233855986457,广发银行(沌口支行),经济开发区东风大道518号,湖北省,武汉市,沌口,金融保险服务;银行;广发银行
114.15655639215774,30.494055755098167,交通银行24小时自助银行(经济技术开发区支行),创业路16号华源商务广场A座F1层,湖北省,武汉市,沌口,金融保险服务;自动提款机;交通银行ATM
114.14351254540856,30.50034481644758,兴业银行(武汉东风阳光城社区支行),东风阳光城4期红枫苑商铺1-9号,湖北省,武汉市,,金融保险服务;银行;兴业银行
114.15921682492855,30.50784363217983,浙商银行(武汉经济技术开发区支行),东合中心H栋,湖北省,武汉市,沌口,金融保险服务;银行;银行
114.15212465471252,30.49578617279882,中国建设银行24小时自助银行(沌阳支行),联城路23号附8号,湖北省,武汉市,沌口,金融保险服务;自动提款机;中国建设银行ATM
114.0110831903322,30.578605744832288,中国邮政储蓄银行(蔡甸区支行),苏李路1号附1号,湖北省,武汉市,,金融保险服务;银行;中国邮政储蓄银行
114.17338079938534,30.518882797135877,中国邮政储蓄银行(东风大道营业所),东风大道66号金利屋大厦F1层(三角湖地铁站D口旁),湖北省,武汉市,升官渡,金融保险服务;银行;中国邮政储蓄银行
114.18879352156624,30.46290526903192,中国农业银行(武汉沌口支行),经济技术开发区沌口路223号附6号,湖北省,武汉市,沌口,金融保险服务;银行;中国农业银行
114.1704652046861,30.50968717510064,中国工商银行24小时自助银行(万达支行),东风大道111号经开万达广场B区1F层,湖北省,武汉市,沌口,金融保险服务;自动提款机;中国工商银行ATM
114.16922655824186,30.510460617350855,中国农业银行24小时自助银行(武汉东风支行),东风大道111号万达广场武汉经开店1F层,湖北省,武汉市,沌口,金融保险服务;自动提款机;中国农业银行ATM
114.17397310058271,30.46592900981385,中国工商银行(汉纸支行),万家湖路267号,湖北省,武汉市,沌口,金融保险服务;银行;中国工商银行
114.02574192972378,30.582722165332164,中国农业银行(武汉新福路支行),蔡甸街新福路298号,湖北省,武汉市,,金融保险服务;银行;中国农业银行
114.17475377585023,30.518396498639895,中国建设银行24小时自助银行(创业支行),东风大道71附69-70(三角湖地铁站A口步行90米),湖北省,武汉市,升官渡,金融保险服务;自动提款机;中国建设银行ATM
114.0500928310062,30.50603361684254,中国建设银行(大集支行),大沌公路12附近,湖北省,武汉市,大集,金融保险服务;银行;中国建设银行
114.02380508725726,30.574702305252266,中国邮政储蓄银行(蔡甸大街邮政支局),蔡甸大街207号龙腾仕家小区附8号,湖北省,武汉市,,金融保险服务;银行;中国邮政储蓄银行
114.11272855714626,30.553482808695243,中国建设银行ATM,武汉公安局蔡甸区分局蔡甸街新农派出所新农社区警务室西北侧160米,湖北省,武汉市,,金融保险服务;自动提款机;中国建设银行ATM
114.03240890769213,30.57798789626529,中国农业发展银行(蔡甸区支行),汉阳大街106号(蔡甸广场地铁站D口步行400米),湖北省,武汉市,,金融保险服务;银行;银行
114.03593812159444,30.57502648961534,湖北银行(武汉蔡甸支行),蔡甸街独山村金家上城(新都汇1-2栋)2栋1层5-6号12号2层1-2号铺,湖北省,武汉市,,金融保险服务;银行;银行
114.02134289103263,30.585910824383024,中国工商银行(跃进桥支行),汉阳大街489号,湖北省,武汉市,,金融保险服务;银行;中国工商银行
114.14928754359968,30.520579641351137,汉口银行(江汉大学支行),经济技术开发区博学路6号联投金色港湾2号门10号铺,湖北省,武汉市,,金融保险服务;银行;银行
114.15701146024894,30.508178441924827,中国银行24小时自助银行(武汉新江大支行),三角湖路9号附2号,湖北省,武汉市,沌口,金融保险服务;自动提款机;中国银行ATM
114.15008122670746,30.503776175350616,中国光大银行(武汉万科金域蓝湾社区支行),神龙大道与车城西路交叉口东北200米附近,湖北省,武汉市,沌口,金融保险服务;银行;银行
114.18311470877454,30.51386609121619,汉口银行(太子湖支行),金色港湾双湖林语商业街太子湖北路与芳草路交汇口,湖北省,武汉市,升官渡,金融保险服务;银行;银行
114.18460032806213,30.530753387448115,中国工商银行24小时自助银行(升官渡支行),经济技术开发区东风大道11号,湖北省,武汉市,升官渡,金融保险服务;自动提款机;中国工商银行ATM
114.1513179259808,30.50104918908188,武汉农村商业银行(沌龙支行),神龙大道128号,湖北省,武汉市,沌口,金融保险服务;银行;农村商业银行
114.03724409371141,30.434520306130405,中国农业银行24小时自助银行(常福街道自助银行),南环西路与建新北路交叉口西20米,湖北省,武汉市,,金融保险服务;自动提款机;中国农业银行ATM
114.03782944079815,30.452103791018903,武汉农村商业银行(常福支行),奓山街大东村常福商务中心1号楼A栋1-4层,湖北省,武汉市,,金融保险服务;银行;农村商业银行
114.03215343293766,30.57800851841781,汉口银行(蔡甸同心社区支行),汉阳大街104附2号(蔡甸广场地铁站D口步行480米),湖北省,武汉市,,金融保险服务;银行;银行
114.0901762284417,30.55791186111386,武汉农村商业银行(新农支行),104省道中级天元大厦1层,湖北省,武汉市,,金融保险服务;银行;农村商业银行
114.04750159346533,30.504907879081493,中国农业银行(武汉大集支行),大集新社区B31栋楼21-22号,湖北省,武汉市,大集,金融保险服务;银行;中国农业银行
114.0676131160303,30.406942274025184,中国邮政储蓄银行(黄陵支行),凤凰商业中心E103,湖北省,武汉市,,金融保险服务;银行;中国邮政储蓄银行
114.0107354327481,30.45002728507384,中国工商银行24小时自助银行(奓山支行),奓山街联谊村还建社区15栋附近,湖北省,武汉市,,金融保险服务;自动提款机;中国工商银行ATM
114.15276129998331,30.50892144353496,中国邮政储蓄银行(车谷支行),三角湖路25号附3-4号,湖北省,武汉市,沌口,金融保险服务;银行;中国邮政储蓄银行
114.15682210478857,30.494603087983055,汉口银行24小时自助银行(武汉经济技术开发区支行),创业路12号嘉昱公馆A座,湖北省,武汉市,沌口,金融保险服务;自动提款机;自动提款机
114.06734019983256,30.407594448477255,武汉农村商业银行(凤凰商业中心支行),黄陵二路与云峰大道交叉口南100米,湖北省,武汉市,,金融保险服务;银行;农村商业银行
114.03554058174873,30.567289240977026,中国邮政储蓄银行(依山龙郡邮政所),蔡甸街茂兴路11号2栋商业1层5号至8号,湖北省,武汉市,,金融保险服务;银行;中国邮政储蓄银行
114.02188462671079,30.585629446197963,武汉农村商业银行(金三角支行),蔡甸街蔡正街134-4,湖北省,武汉市,,金融保险服务;银行;农村商业银行
114.00503926888442,30.452317633910486,中国邮政邮政储蓄,白鹤泉西街与奓正街交叉口西80米,湖北省,武汉市,,金融保险服务;银行;中国邮政储蓄银行
114.14633845595898,30.508731133106444,中国邮政储蓄银行(三角湖营业所),三角湖路12号附81号,湖北省,武汉市,沌口,金融保险服务;银行;中国邮政储蓄银行
114.03537023159187,30.57496485389077,中国建设银行24小时自助银行(蔡甸支行),蔡甸广场地铁站A口旁,湖北省,武汉市,,金融保险服务;自动提款机;中国建设银行ATM
114.00665598532436,30.452020871490642,中国建设银行24小时自助银行(奓山支行),奓山镇白鹤泉西路58号,湖北省,武汉市,,金融保险服务;自动提款机;中国建设银行ATM
114.16043811478339,30.510490109520852,渤海银行(武汉经济技术开发区支行),三角湖路4号凤铭广场1层,湖北省,武汉市,沌口,金融保险服务;银行;银行
114.15098757559412,30.494473509059915,中国农业银行24小时自助银行(武汉沌阳分理处),联城路25号东风·新城商业广场F1层,湖北省,武汉市,沌口,金融保险服务;自动提款机;中国农业银行ATM
114.15219943885222,30.489234178043272,中国农业银行24小时自助银行(武汉开发区支行营业部),创业路50号(沌阳大道地铁站A口步行260米),湖北省,武汉市,沌口,金融保险服务;自动提款机;中国农业银行ATM
114.01506083035629,30.569130679277503,武汉农村商业银行(知音支行),蔡甸大道1号政务中心,湖北省,武汉市,,金融保险服务;银行;农村商业银行
114.1545136506185,30.4129300355277,中国农业银行(武汉军山支行),经开大道8号车都春台里23-26号商铺,湖北省,武汉市,,金融保险服务;银行;中国农业银行
114.13751752233618,30.413173899972186,湖北银行(武汉车谷支行),川江池二路智慧车都青年城1-6号,湖北省,武汉市,,金融保险服务;银行;银行
114.08477408422769,30.461110364293575,武汉农村商业银行24小时自助银行(协丰支行),商院小区北门旁,湖北省,武汉市,,金融保险服务;自动提款机;农村商业银行ATM
113.83911498224869,30.441830719543812,中国农业银行(武汉侏儒支行),侏儒山街新艺街177号,湖北省,武汉市,侏儒,金融保险服务;银行;中国农业银行
114.03535931535802,30.574263137274045,中国工商银行24小时自助银行(建新支行),金家·新都汇西门旁(蔡甸广场地铁站A口步行120米),湖北省,武汉市,,金融保险服务;自动提款机;中国工商银行ATM
114.04850513280975,30.50498891662238,武汉农村商业银行(大集支行),莲溪社区,湖北省,武汉市,大集,金融保险服务;银行;农村商业银行
114.02353322237884,30.580305965619687,中国银行股份有限公司武汉蔡甸支行营业部(工会驿站),新福路33号,湖北省,武汉市,,金融保险服务;银行;中国银行
114.15695831456557,30.508103366379608,中国银行武汉新江大支行(工会驿站),三角湖路9号附2号,湖北省,武汉市,沌口,金融保险服务;银行;中国银行
114.15690395840521,30.51039557336949,中国工商银行24小时自助银行(东风支行),东风三路15号,湖北省,武汉市,沌口,金融保险服务;自动提款机;中国工商银行ATM
114.01106779910711,30.44741494350529,汉口银行(常福新城支行),云龙三路奓山新社区二期22栋11-22号商铺,湖北省,武汉市,,金融保险服务;银行;银行
114.02683585401529,30.589611684328037,中国邮政储蓄银行(蝙蝠街支行),蝙蝠街67号,湖北省,武汉市,,金融保险服务;银行;中国邮政储蓄银行
114.15739371070958,30.49496803909294,中国建设银行24小时自助银行(创业路),创业路与汉光巷交叉口西南80米,湖北省,武汉市,沌口,金融保险服务;自动提款机;中国建设银行ATM
114.18883663504651,30.462918338488226,中国农业银行24小时自助银行(沌口支行),港湾江城一期西区北门旁,湖北省,武汉市,沌口,金融保险服务;自动提款机;中国农业银行ATM
114.14926550208637,30.520354672888136,中国民生银行,联投金色港湾2号门商业街星巴克旁江大5号门对门,湖北省,武汉市,,金融保险服务;银行;银行
114.03654594694353,30.575088042330485,中国农业银行24小时自助银行(武汉新农分理处),蔡甸大街金家上城新都汇3号楼第3幢1单元1层5-10号,湖北省,武汉市,,金融保险服务;自动提款机;中国农业银行ATM
114.05109647916949,30.506185733180352,中国邮政储蓄银行(大集支行),天鹅湖大道与泊龙路交叉口东北60米,湖北省,武汉市,大集,金融保险服务;银行;中国邮政储蓄银行
114.18316685765936,30.513809201083063,汉口银行24小时自助银行(太子湖支行),太子湖北路与芳草路交叉口西北80米,湖北省,武汉市,升官渡,金融保险服务;自动提款机;自动提款机
113.89783645648895,30.524215191844416,武汉农村商业银行(索河支行),索河路60号,湖北省,武汉市,,金融保险服务;银行;农村商业银行
114.05015973967978,30.50604149072138,中国建设银行24小时自助银行(武汉大集支行),天鹅湖大道新兰商业广场(东南角),湖北省,武汉市,大集,金融保险服务;自动提款机;中国建设银行ATM
114.1571928651924,30.50949238059649,中国农业发展银行(汉南支行),东风三路15号东合中心F1层,湖北省,武汉市,沌口,金融保险服务;银行;银行
114.14950219494888,30.485729340373503,武汉农村商业银行24小时自助银行(经济技术开发区支行),武银经开大厦1号门东70米,湖北省,武汉市,沌口,金融保险服务;自动提款机;农村商业银行ATM
114.03702349728542,30.434666783400285,武汉农村商业银行(常福支行),南环西路1号,湖北省,武汉市,,金融保险服务;银行;农村商业银行
114.04687247461456,30.505496937866656,新兰集市湖北银行,大沌公路18号新兰集市1层4号,湖北省,武汉市,大集,金融保险服务;银行;银行
113.77291768814841,30.31601084033359,武汉农村商业银行(消泗支行),消泗乡消泗正街96号,湖北省,武汉市,,金融保险服务;银行;农村商业银行
114.15766830013888,30.50867650652285,中信银行24小时自助银行(武汉东风支行),东风三路1号B座(东合中心大厦1层),湖北省,武汉市,沌口,金融保险服务;自动提款机;中信银行ATM
114.02044599123833,30.58648008084195,中国邮政储蓄银行(幺堤支行),汉阳大街71号附4号,湖北省,武汉市,,金融保险服务;银行;中国邮政储蓄银行
114.11892160114671,30.375852485364867,武汉农村商业银行,沌口街办事处车城大道与东风大道交汇处,湖北省,武汉市,,金融保险服务;银行;农村商业银行
113.93221201049022,30.460153686775502,中国农业银行(武汉永安支行),永安大街328号,湖北省,武汉市,,金融保险服务;银行;中国农业银行
114.17530009625698,30.521165644192966,中国工商银行24小时自助银行(金色港湾支行),东风大道68附38号(三角湖地铁站B口步行230米),湖北省,武汉市,升官渡,金融保险服务;自动提款机;中国工商银行ATM
114.02351626702217,30.580248032919457,中国银行24小时自助银行(蔡甸支行),新福路33号,湖北省,武汉市,,金融保险服务;自动提款机;中国银行ATM
114.1733366749871,30.518856723131552,中国邮政储蓄银行ATM(东风大道营业所),东风大道66附1号(三角湖地铁站D口旁),湖北省,武汉市,升官渡,金融保险服务;自动提款机;中国邮政储蓄银行ATM
114.02665098247205,30.581567205188897,中国工商银行24小时自助银行(蔡甸支行),汉阳大街80号,湖北省,武汉市,,金融保险服务;自动提款机;中国工商银行ATM
114.17416866263929,30.465906378896072,中国工商银行24小时自助银行(汉纸支行),万家湖路259号,湖北省,武汉市,沌口,金融保险服务;自动提款机;中国工商银行ATM
114.0376572981121,30.434749301365404,中国邮政储蓄银行24小时自助银行,建新北路7号附4号,湖北省,武汉市,,金融保险服务;自动提款机;中国邮政储蓄银行ATM
114.0377875151909,30.452145876828865,武汉农村商业银行24小时自助银行(常福支行),常福商务广场西门旁,湖北省,武汉市,,金融保险服务;自动提款机;农村商业银行ATM
114.15764828018627,30.508247598723738,上海浦东发展银行24小时自助银行(沌口支行),沌口经济开发区东风三路3号东合中心C座,湖北省,武汉市,沌口,金融保险服务;自动提款机;上海浦东发展银行ATM
113.97724456885757,30.584955100062725,武汉市农村商业银行(柏林支行),柏林街与济民路交叉口东北20米,湖北省,武汉市,,金融保险服务;银行;农村商业银行
114.16057551459437,30.510453377269695,平安银行24小时自助银行(武汉经济技术开发区支行),三角湖路4号凤铭广场F1层,湖北省,武汉市,沌口,金融保险服务;自动提款机;平安银行ATM
114.03378013174961,30.57781961137946,中国农业银行24小时自助银行(蔡甸支行营业室),汉阳大街110附4号附近,湖北省,武汉市,,金融保险服务;自动提款机;中国农业银行ATM
114.00541438860371,30.450925850935363,中国农业银行24小时自助银行(奓山支行),奓山街奓山集正街88号,湖北省,武汉市,,金融保险服务;自动提款机;中国农业银行ATM
114.0152074628829,30.569098270601394,汉口银行蔡甸城市综合服务中心,成功大道88号蔡甸市民之家2楼,湖北省,武汉市,,金融保险服务;银行;银行
113.83749248669756,30.441785836553112,武汉农村商业银行(侏儒支行),新艺街92号,湖北省,武汉市,侏儒,金融保险服务;银行;农村商业银行
114.04761640897506,30.505087601790994,中国农业银行24小时自助银行(武汉大集分理处),大集街钟陵街64号,湖北省,武汉市,大集,金融保险服务;自动提款机;中国农业银行ATM
113.93217706855906,30.459909803986864,中国邮政储蓄银行(永安营业所),永安大街269附6附近,湖北省,武汉市,,金融保险服务;银行;中国邮政储蓄银行
114.15533614126443,30.41119289946435,武汉农村商业银行ATM,小军山社区东南门东60米,湖北省,武汉市,,金融保险服务;自动提款机;农村商业银行ATM
114.1844978324684,30.463988590912223,武汉农村商业银行24小时自助银行(沌口街支行),建华社区A区东北门旁,湖北省,武汉市,沌口,金融保险服务;自动提款机;农村商业银行ATM
114.15771149848028,30.496385218205635,华夏银行24小时自助银行(武汉经济开发区支行),神龙大道111号绿岛大厦B座F1层,湖北省,武汉市,沌口,金融保险服务;自动提款机;华夏银行ATM
114.15300263264028,30.4900623956173,兴业银行24小时自助银行(武汉开发区支行),武汉建工科技中心裙楼1层,湖北省,武汉市,沌口,金融保险服务;自动提款机;兴业银行ATM
113.93310501671868,30.46045417525346,武汉农村商业银行(永安支行),安福路78号,湖北省,武汉市,,金融保险服务;银行;农村商业银行
113.84097496797594,30.44329165053007,中国邮政储蓄银行(侏儒营业所),蟹湖大街298号,湖北省,武汉市,,金融保险服务;银行;中国邮政储蓄银行
114.02425911862844,30.573768428601767,汉口银行24小时自助银行(蔡甸支行),蔡甸大街208号(临嶂大道地铁站C口步行170米),湖北省,武汉市,,金融保险服务;自动提款机;自动提款机
114.0107195019555,30.449711408706825,武汉农村商业银行(奓山支行),奓山新苑2期西2门北120米,湖北省,武汉市,,金融保险服务;银行;农村商业银行
114.03074930407234,30.5787367438074,中国邮政储蓄银行(建新路营业所),汉阳大街133之附2-3,湖北省,武汉市,,金融保险服务;银行;中国邮政储蓄银行
113.98001193326715,30.520916088138833,武汉农村商业银行(玉贤支行),玉贤路234号,湖北省,武汉市,,金融保险服务;银行;农村商业银行
113.98001193326715,30.520916088138833,武汉农村商业银行(玉贤支行),玉贤路234号,湖北省,武汉市,,金融保险服务;银行;农村商业银行
114.15319786165773,30.516597887761908,中国建设银行24小时自助银行(飞虹大道),飞虹大道江汉大学,湖北省,武汉市,,金融保险服务;自动提款机;中国建设银行ATM
114.15258449385934,30.48958277467131,湖北银行24小时自助银行(沌口支行),沌阳大道407(沌阳大道地铁站A口步行300米),湖北省,武汉市,沌口,金融保险服务;自动提款机;自动提款机
114.02188961991821,30.585572454061648,武汉农村商业银行24小时自助银行(金三角支行),蔡甸街蔡正街134-4,湖北省,武汉市,,金融保险服务;自动提款机;农村商业银行ATM
113.83914405544756,30.44191275182659,中国农业银行24小时自助银行(侏儒支行),侏儒街新艺街168号,湖北省,武汉市,侏儒,金融保险服务;自动提款机;中国农业银行ATM
114.02294859921119,30.580189589422332,中国建设银行24小时自助银行(新福路支行),蔡甸街新福路492号,湖北省,武汉市,,金融保险服务;自动提款机;中国建设银行ATM
114.16054542871017,30.510442324427782,渤海银行24小时自助银行(武汉经济技术开发区支行),三角湖路4号凤铭广场F1层,湖北省,武汉市,沌口,金融保险服务;自动提款机;自动提款机
114.03591716330101,30.575013543704014,湖北银行24小时自助银行(武汉蔡甸支行),蔡甸街独山村金家上城(新都汇1-2栋),湖北省,武汉市,,金融保险服务;自动提款机;自动提款机
114.15693505805821,30.51027466745451,工商银行武汉东风支行爱心驿站,武汉市经济技术开发区东风三路1号工商银行,湖北省,武汉市,沌口,金融保险服务;自动提款机;自动提款机
114.1723609727474,30.460175481342066,中国工商银行24小时自助银行(枫桦苇岸点)(暂停营业),万家湖路枫桦苇岸,湖北省,武汉市,沌口,金融保险服务;自动提款机;中国工商银行ATM
114.05099261829707,30.506154930785584,中国邮政储蓄银行24小时自助(大沌公路),大沌公路附近,湖北省,武汉市,大集,金融保险服务;自动提款机;中国邮政储蓄银行ATM
114.15702627045908,30.499397074922985,广发银行24小时自助银行(沌口支行),武汉经济开发区东风大道618号,湖北省,武汉市,沌口,金融保险服务;自动提款机;广发银行ATM
113.84779558984057,30.508261763295387,武汉农村商业银行,车站大道2号,湖北省,武汉市,,金融保险服务;银行;农村商业银行
114.15024267700036,30.503779461602008,中国光大银行24小时自助银行,神龙大道与车城西路交叉口东北100米,湖北省,武汉市,沌口,金融保险服务;自动提款机;中国光大银行ATM
113.93214208279325,30.460175792187734,中国农业银行24小时自助银行(永安分理处),永安大街328号,湖北省,武汉市,,金融保险服务;自动提款机;中国农业银行ATM
114.02139944077726,30.589465320121384,中国邮政储蓄银行ATM(幺堤路支行),古井路,湖北省,武汉市,,金融保险服务;自动提款机;中国邮政储蓄银行ATM
114.07166505788844,30.490268922604216,武汉农村商业银行24小时自助银行,天星村1号武汉花博汇内(东侧),湖北省,武汉市,,金融保险服务;自动提款机;农村商业银行ATM
113.83732000959081,30.441748535854607,武汉农村商业银行24小时自助银行(侏儒支行),侏儒山街道新艺街武汉农村商业银行,湖北省,武汉市,侏儒,金融保险服务;自动提款机;农村商业银行ATM
114.41454843074897,30.458186431628224,招商银行(武汉新城支行),东湖高新开发区光谷大道120号现代森林小镇A栋,湖北省,武汉市,,金融保险服务;银行;招商银行
114.30378393748428,30.35024531059821,中国建设银行(江夏支行),兴新街357号,湖北省,武汉市,纸坊,金融保险服务;银行;中国建设银行
114.3233422600993,30.36104200990368,招商银行(江夏支行),江夏大道169号九全嘉国际广场,湖北省,武汉市,纸坊,金融保险服务;银行;招商银行
114.4154962345263,30.475632660135428,中国建设银行(武汉光谷自贸区分行),光谷大道70号现代·光谷世贸中心F1层,湖北省,武汉市,光谷,金融保险服务;银行;中国建设银行
114.41821567326029,30.436455876222848,中国银行(藏龙岛科技支行),光谷大道百度大厦1层,湖北省,武汉市,藏龙岛,金融保险服务;银行;中国银行
114.41436393357652,30.46101157101525,中国工商银行(武汉光谷支行),光谷大道112号(金融港北地铁站B口步行330米),湖北省,武汉市,,金融保险服务;银行;中国工商银行
114.434039582998,30.433305147354126,中国工商银行(武汉藏龙岛支行),藏龙岛开发区杨桥湖大道23号附9号,湖北省,武汉市,流芳,金融保险服务;银行;中国工商银行
114.43480234748414,30.43341037906525,中国建设银行(武汉藏龙岛支行),梁山头社区西北1门西80米,湖北省,武汉市,流芳,金融保险服务;银行;中国建设银行
114.31649088456594,30.367060137506495,中国工商银行(武汉江夏支行营业室),谭鑫培公园地铁站H2口步行330米,湖北省,武汉市,纸坊,金融保险服务;银行;中国工商银行
114.4205520829971,30.41743543761115,中国农业银行(武汉藏龙岛支行),藏龙岛杨桥湖大道特1号,湖北省,武汉市,藏龙岛,金融保险服务;银行;中国农业银行
114.53451159015738,30.49443836460325,招商银行(武汉未来科技城支行),东湖高新技术区高新大道999号未来科技城C3栋裙房101单元,湖北省,武汉市,,金融保险服务;银行;招商银行
114.43513693263944,30.447316680766324,中国建设银行(佛祖岭支行),高新五路与光谷一路交汇处,湖北省,武汉市,流芳,金融保险服务;银行;中国建设银行
114.31764654287235,30.360981924303573,中国建设银行(武汉北华支行),北华街26附12号(北华街地铁站A2口旁),湖北省,武汉市,纸坊,金融保险服务;银行;中国建设银行
114.41635513825756,30.45642937713304,中国建设银行(武汉金融港支行),光谷大道77号金融港1.1期A4栋1-3号,湖北省,武汉市,流芳,金融保险服务;银行;中国建设银行
114.41582438511068,30.45626396131518,兴业银行(武汉东湖高新科技支行),东湖新技术开发区光谷大道77号光谷金融港A4号楼1层,湖北省,武汉市,流芳,金融保险服务;银行;兴业银行
114.41439384246104,30.462528207305144,中国农业银行(金融港支行),光谷大道116号当代中心1层,湖北省,武汉市,,金融保险服务;银行;中国农业银行
114.39704906563982,30.459656065462003,中国农业银行(江夏支行),东湖高新区大学园路12号,湖北省,武汉市,,金融保险服务;银行;中国农业银行
114.43602297211746,30.448091993311298,中国工商银行(武汉佛祖岭支行),佛祖岭D区特1号,湖北省,武汉市,流芳,金融保险服务;银行;中国工商银行
114.43795258529533,30.43759385009178,中国农业银行(流芳支行),藏龙岛开发区杨桥湖大道20号附6号,湖北省,武汉市,流芳,金融保险服务;银行;中国农业银行
114.3184612196136,30.361026361933018,交通银行(武汉江夏支行),北华街24号富丽园大厦1层,湖北省,武汉市,纸坊,金融保险服务;银行;交通银行
114.3050181269639,30.350296096534162,中国银行(武汉江夏支行),纸坊兴新街351号,湖北省,武汉市,纸坊,金融保险服务;银行;中国银行
114.31834236624037,30.36156150325298,中国农业银行(武汉城北支行),文化大道28附2号(北华街地铁站D口旁),湖北省,武汉市,纸坊,金融保险服务;银行;中国农业银行
114.44238152220022,30.43144453806046,汉口银行(藏龙岛支行),梁山头路与康力街交叉口南60米,湖北省,武汉市,流芳,金融保险服务;银行;银行
114.42533528709863,30.455906130051673,交通银行(武汉光谷支行),金融港四路18号,湖北省,武汉市,流芳,金融保险服务;银行;银行
114.5229578038099,30.490304279914497,恒丰银行(武汉光谷科技支行),高新大道高科医疗器械园B1栋一楼,湖北省,武汉市,,金融保险服务;银行;银行
114.3059284299608,30.4125113499367,中国银行(武汉大花岭支行),纸坊街大花岭新街2号,湖北省,武汉市,大花岭,金融保险服务;银行;中国银行
114.31701517385571,30.3654993963699,武汉农村商业银行(江夏支行),纸坊街文化路33号(北华街地铁站A1口步行460米),湖北省,武汉市,纸坊,金融保险服务;银行;农村商业银行
114.36733766877083,30.415693112541877,中国建设银行(武汉华泰支行),庙山开发区梅南山居商业网点21-24号,湖北省,武汉市,庙山,金融保险服务;银行;中国建设银行
114.3168334370695,30.377457717832712,中国工商银行24小时自助银行(文化大道),文化大道和古驿北路的交叉口附近,湖北省,武汉市,,金融保险服务;自动提款机;中国工商银行ATM
114.3169301931642,30.378477354952928,湖北银行(武汉江夏支行),文化大道江郡华府3栋,湖北省,武汉市,,金融保险服务;银行;银行
114.3274786040034,30.35984428413458,中国工商银行(北华街支行),兴苑街与北华街交叉口西南50米,湖北省,武汉市,纸坊,金融保险服务;银行;中国工商银行
114.41451337454595,30.458281379968096,招商银行24小时自助银行(武汉新城支行),光谷大道120号,湖北省,武汉市,,金融保险服务;自动提款机;招商银行ATM
114.44159157999982,30.441278742386096,中国邮政储蓄银行(流芳支行),佛祖岭A区东门旁,湖北省,武汉市,流芳,金融保险服务;银行;中国邮政储蓄银行
114.41437695980375,30.46091360616544,中国工商银行24小时自助银行(光谷支行),光谷大道112号(金融港北地铁站B口步行440米),湖北省,武汉市,,金融保险服务;自动提款机;中国工商银行ATM
114.31869790077883,30.360270030389085,中信银行(武汉江夏支行),北华街21号(北华街地铁站C口步行70米),湖北省,武汉市,纸坊,金融保险服务;银行;中信银行
114.31116965436176,30.42140782918075,中国建设银行24小时自助银行(金樱街),汉口学院北门旁,湖北省,武汉市,大花岭,金融保险服务;自动提款机;中国建设银行ATM
114.38256129354707,30.467866307226043,中国银行(锦绣龙城支行),锦绣龙城A区南门东90米,湖北省,武汉市,,金融保险服务;银行;中国银行
114.42599676582354,30.453478580485246,中国光大银行(金融港支行),高新四路光谷汇金中心1层,湖北省,武汉市,流芳,金融保险服务;银行;中国光大银行
114.43487851703782,30.433514482057763,中国建设银行24小时自助银行(藏龙岛支行),梁山头社区西北1门西70米,湖北省,武汉市,流芳,金融保险服务;自动提款机;中国建设银行ATM
114.384011015096,30.468366347598554,中国工商银行(锦绣龙城支行),民族大道888号锦绣龙城F区100栋1层5-8号,湖北省,武汉市,,金融保险服务;银行;中国工商银行
114.31377154290196,30.409926362563475,中国农业银行(大花岭支行),文化大道66附56-60号(大花岭地铁站D口步行410米),湖北省,武汉市,大花岭,金融保险服务;银行;中国农业银行
114.32159261845928,30.366860418770404,中国银行(武汉弘志街支行),纸坊街弘志街89号金地花园小区2号楼,湖北省,武汉市,纸坊,金融保险服务;银行;中国银行
114.4157165284327,30.47585578509112,中国建设银行24小时自助银行,光谷大道70号现代·光谷世贸中心F1层,湖北省,武汉市,光谷,金融保险服务;自动提款机;自动提款机
114.37557180333404,30.466851719473038,浦发银行(东湖高新支行),关东街道龙城西路8号,湖北省,武汉市,,金融保险服务;银行;上海浦东发展银行
114.41657877127217,30.487437344929784,浙商银行(光谷科技支行),凌家山南路1号武汉·光谷企业天地5号楼,湖北省,武汉市,光谷,金融保险服务;银行;银行
114.41761570235536,30.437018180989586,中国工商银行(武汉凤凰支行),光谷大道218号百捷大厦一楼门面附1号-4号,湖北省,武汉市,藏龙岛,金融保险服务;银行;中国工商银行
114.41528618561266,30.438248852170812,武汉农村商业银行(藏龙岛支行),九凤街7号,湖北省,武汉市,藏龙岛,金融保险服务;银行;农村商业银行
114.41549331999975,30.474601934476865,浦发银行(光谷科创支行),东湖高新区光谷大道41号现代国际设计城二期B-1栋1层,湖北省,武汉市,光谷,金融保险服务;银行;银行
114.36720586098883,30.414718469718686,中国工商银行(武汉庙山开发区支行),梅南山居商网1-4号,湖北省,武汉市,庙山,金融保险服务;银行;中国工商银行
114.4181866271668,30.436467845718784,中国银行24小时自助银行(藏龙岛科技支行),光谷大道百度大厦1层,湖北省,武汉市,藏龙岛,金融保险服务;自动提款机;中国银行ATM
114.37664036569072,30.454612925492146,中国建设银行(武汉韵湖支行),[],湖北省,武汉市,,金融保险服务;银行;中国建设银行
114.4340125189995,30.433323099152048,中国工商银行24小时自助银行(武汉藏龙岛支行),藏龙岛水晶郦都1号楼9-11号,湖北省,武汉市,流芳,金融保险服务;自动提款机;中国工商银行ATM
114.31932287607037,30.360380817666343,兴业银行(江夏支行),北华街3号附10号(北华街地铁站C口步行150米),湖北省,武汉市,纸坊,金融保险服务;银行;兴业银行
114.32329065355584,30.357456676748118,中国农业银行(武汉兴新街支行),江夏大道鸿发世纪城4栋1-2层12-13室,湖北省,武汉市,纸坊,金融保险服务;银行;中国农业银行
114.31981061854829,30.354158858900295,中国工商银行(熊廷弼路支行),熊廷弼街72号附30号,湖北省,武汉市,纸坊,金融保险服务;银行;中国工商银行
114.43497254769149,30.44729341158294,中国建设银行24小时自助银行(佛祖岭支行),高新五路与光谷一路交汇处,湖北省,武汉市,藏龙岛,金融保险服务;自动提款机;中国建设银行ATM
114.38035685610575,30.4675638064304,中国光大银行(武汉锦绣龙城社区支行),民族大道龙城路F-A101商铺,湖北省,武汉市,,金融保险服务;银行;中国光大银行
114.39467028264637,30.456866869299535,武汉农村商业银行(郑桥支行),东湖新技术开发区大学园路16号宇晨大厦一楼,湖北省,武汉市,,金融保险服务;银行;银行
114.31627618900471,30.36753746682241,汉口银行(江夏支行),纸坊街文华路37号中百广场(江夏店)1F层,湖北省,武汉市,纸坊,金融保险服务;银行;银行
114.36717889000519,30.414638517738194,中国工商银行24小时自助银行(庙山开发区支行),庙山开发区梅南山居商网1-4号,湖北省,武汉市,庙山,金融保险服务;自动提款机;中国工商银行ATM
114.38287821865653,30.46804407237155,招商银行24小时自助银行(龙城路),锦绣龙城F区东北1门西70米,湖北省,武汉市,,金融保险服务;自动提款机;招商银行ATM
114.5428148882084,30.464138243130222,中国邮政储蓄银行(豹澥支行),豹澥街道万年台社区C11-C12北区商铺,湖北省,武汉市,,金融保险服务;银行;中国邮政储蓄银行
114.42817242500522,30.44955446254949,中国民生银行佛祖岭社区支行,谷尚居小区南门旁,湖北省,武汉市,流芳,金融保险服务;银行;银行
114.32168753685505,30.354404225108617,中国建设银行股份有限公司武汉文华支行爱心驿站(工会驿站),纸坊街熊庭弼街72号附6号,湖北省,武汉市,纸坊,金融保险服务;银行;中国建设银行
114.32166257881639,30.35439027510548,中国建设银行(武汉文华支行),熊廷弼街与江夏大道交叉口西180米,湖北省,武汉市,纸坊,金融保险服务;银行;中国建设银行
114.38318315783627,30.468134871157442,中国建设银行(武汉南湖大道支行),民族大道西150米,湖北省,武汉市,,金融保险服务;自动提款机;中国农业银行ATM|金融保险服务;银行;中国建设银行
114.43591771549617,30.448144800760602,中国工商银行24小时自助银行(佛祖岭支行),光谷一路与高新五路交叉口东北50米,湖北省,武汉市,藏龙岛,金融保险服务;自动提款机;中国工商银行ATM
114.31952255320883,30.36035943902626,平安银行(武汉江夏支行),纸坊街北华街3号附78和9,湖北省,武汉市,纸坊,金融保险服务;银行;平安银行
114.53452964796345,30.494399418666806,招商银行24小时自助银行(武汉未来科技城支行),九峰三路武汉未来科技城-C区,湖北省,武汉市,,金融保险服务;自动提款机;招商银行ATM
114.42562181822646,30.456087449724258,华夏银行(光谷金融港科技支行),光谷汇金中心1层456号商铺,湖北省,武汉市,流芳,金融保险服务;银行;华夏银行
114.39697303917295,30.459534095749255,中国农业银行24小时自助银行(江夏支行),东湖高新区大学园路12号,湖北省,武汉市,,金融保险服务;自动提款机;中国农业银行ATM
114.32329735370513,30.360808133395686,湖北银行(武汉北华街支行),北华街九全嘉国际广场103B和203号商铺,湖北省,武汉市,纸坊,金融保险服务;银行;银行
114.4379936869649,30.437597922578664,中国农业银行24小时自助银行(武汉流芳支行),光谷江夏藏龙岛科技园,湖北省,武汉市,藏龙岛,金融保险服务;自动提款机;中国农业银行ATM
114.54267557055283,30.463429131771218,中国农业银行(武汉豹海支行),三眼桥社区北1门旁,湖北省,武汉市,,金融保险服务;银行;中国农业银行
114.3154967197026,30.375911527709544,华夏银行(江夏支行),文化大道3号联投广场(谭鑫培公园地铁站A口步行80米),湖北省,武汉市,,金融保险服务;银行;华夏银行
114.36737226118514,30.408558550233185,汉口银行(江夏大道支行),江夏区经济开发区庙山街道保利海上五月花2期4栋门店,湖北省,武汉市,庙山,金融保险服务;银行;银行
114.3080895318291,30.350213531556747,中国工商银行(兴新街支行),兴新街37号,湖北省,武汉市,纸坊,金融保险服务;银行;中国工商银行
114.53259462259275,30.49574638221314,中国工商银行24小时自助银行,高新大道977号,湖北省,武汉市,,金融保险服务;自动提款机;中国工商银行ATM
114.37541190878251,30.466554936098476,中国邮政储蓄银行(龙城路支行),东湖开发区龙城路梅花坞A4A5栋1单元,湖北省,武汉市,,金融保险服务;银行;中国邮政储蓄银行
114.36737064277656,30.415684076391546,中国建设银行24小时自助银行(武汉华泰支行),庙山办事处江夏大道梅南山居商业网点21-24号,湖北省,武汉市,庙山,金融保险服务;自动提款机;中国建设银行ATM
114.30581760581562,30.412385576360165,中国邮政储蓄银行(大桥营业所),红花路,湖北省,武汉市,大花岭,金融保险服务;银行;中国邮政储蓄银行
114.44109910746828,30.443361307753868,武汉农村商业银行(流芳支行),佛祖岭B区东门北消防站旁,湖北省,武汉市,流芳,金融保险服务;银行;农村商业银行
114.44962400969784,30.44164226951487,武汉农村商业银行(佛祖岭支行),佛祖岭F区西区东门西北130米,湖北省,武汉市,流芳,金融保险服务;银行;农村商业银行
114.3774622201501,30.47513795143643,中国银行(财经政法大学支行),政院路1号(中南财经政法大学校园内),湖北省,武汉市,,金融保险服务;银行;中国银行
114.55291414366951,30.461559309379464,武汉农村商业银行(豹澥支行),新兴路,湖北省,武汉市,,金融保险服务;银行;银行
114.43322873682072,30.47944130726261,武汉农村商业银行(湖口支行),高新二路光谷悦城一期1号商业栋1层,湖北省,武汉市,流芳,金融保险服务;银行;农村商业银行
114.38405901007454,30.468353325015467,中国工商银行24小时自助银行(武汉锦绣龙城支行),汤逊湖北路特1号(华师一附中内),湖北省,武汉市,,金融保险服务;自动提款机;中国工商银行ATM
114.42118473613922,30.45679002178026,九江银行(武汉数据中心),光谷大道77号光谷金融港B13栋,湖北省,武汉市,流芳,金融保险服务;银行;银行
114.43861223922613,30.43750405725974,中国邮政储蓄银行(藏龙岛支行),锦东西北门旁,湖北省,武汉市,流芳,金融保险服务;银行;中国邮政储蓄银行
114.36731024486285,30.397823754197663,武汉农村商业银行(汤逊湖支行),江夏大道45号庙山国际产业广场,湖北省,武汉市,庙山,金融保险服务;银行;农村商业银行
114.32334626923004,30.36086003131529,招商银行24小时自助银行(江夏支行),九全嘉国际广场西南门东北50米,湖北省,武汉市,纸坊,金融保险服务;自动提款机;招商银行ATM
114.32314920119288,30.353786517568267,武汉农村商业银行(纸坊支行),江夏大道155号,湖北省,武汉市,纸坊,金融保险服务;银行;农村商业银行
114.3274826172157,30.359615312843125,中国工商银行24小时自助银行(北华街支行),兴苑街与北华街交叉口西南50米,湖北省,武汉市,纸坊,金融保险服务;自动提款机;中国工商银行ATM
114.31408136856267,30.359783884840326,中国邮政储蓄银行(江夏区支行),中国邮政江夏区分公司西南门旁,湖北省,武汉市,纸坊,金融保险服务;银行;中国邮政储蓄银行
114.30573383711483,30.411145983884932,武汉农村商业银行(大桥支行),大桥居委会小区西门旁,湖北省,武汉市,大花岭,金融保险服务;银行;农村商业银行
114.31515022858967,30.353210887720472,中国农业银行(武汉中心港支行),古驿道110号,湖北省,武汉市,纸坊,金融保险服务;银行;中国农业银行
114.3077983443205,30.34590470535951,中国农业银行(武汉纸坊大街支行),纸坊大街432号附10号,湖北省,武汉市,纸坊,金融保险服务;银行;中国农业银行
114.38923116311301,30.477562622879024,兴业银行(武汉中南财大社区支行),东林外庐西北门旁,湖北省,武汉市,,金融保险服务;银行;兴业银行
114.42063621295563,30.417556501189164,中国农业银行24小时自助银行(藏龙岛支行),藏龙岛杨桥湖大道特一号,湖北省,武汉市,藏龙岛,金融保险服务;自动提款机;中国农业银行ATM
114.30955211243051,30.422027700893615,招商银行24小时自助银行(金樱街)(暂停营业),纸坊街文化路特1号武汉东湖学院南门,湖北省,武汉市,大花岭,金融保险服务;自动提款机;招商银行ATM
114.31832239757468,30.36157353946337,中国农业银行24小时自助银行(武汉城北支行),文化路28附2号(北华街地铁站D口旁),湖北省,武汉市,纸坊,金融保险服务;自动提款机;中国农业银行ATM
114.31538755639042,30.39144693184835,浙商银行(武汉江夏支行),文化路111号通达广场一号商铺,湖北省,武汉市,,金融保险服务;银行;银行
114.38331012832566,30.468234772217453,中国建设银行股份有限公司武汉南湖大道支行爱心驿站(工会驿站)(装修中),龙城路1号附72号,湖北省,武汉市,,金融保险服务;银行;中国建设银行
114.32690930869673,30.362438955772543,武汉农村商业银行(广场支行),江夏大道158号附57号,湖北省,武汉市,纸坊,金融保险服务;银行;农村商业银行
114.44721063790143,30.434197766466802,武汉农村商业银行(同兴广场支行),流芳路108号同兴生活广场F1层,湖北省,武汉市,流芳,金融保险服务;银行;农村商业银行
114.31542455800464,30.39073999404556,中国邮政储蓄银行(武汉市文化大道支行),文化大道特8号侨亚国际文化大厦,湖北省,武汉市,,金融保险服务;银行;中国邮政储蓄银行
114.31538553283885,30.391757877311754,广发银行(武汉江夏支行),大桥新区办事处渔牧村文化大道111号通达广场,湖北省,武汉市,,金融保险服务;银行;广发银行
114.32319788376178,30.356545997061488,上海浦东发展银行,鸿发世纪城东门旁,湖北省,武汉市,纸坊,金融保险服务;银行;上海浦东发展银行
114.30361617053663,30.350366590605717,中国建设银行股份有限公司武汉江夏支行爱心驿站(工会驿站),纸坊街兴新街357号,湖北省,武汉市,纸坊,金融保险服务;银行;中国建设银行
114.31244890892958,30.360299876050508,中国建设银行ATM(武汉江夏北华支行),北华街36号,湖北省,武汉市,纸坊,金融保险服务;自动提款机;中国建设银行ATM
114.43607416144461,30.435739992053236,华夏银行(天纵水晶郦都社区支行),藏龙岛天纵·水晶郦都14栋15-16号(光谷一路),湖北省,武汉市,流芳,金融保险服务;银行;华夏银行
114.43406965042452,30.433328191168787,工商银行江夏支行藏龙岛支行爱心驿站(工会驿站),藏龙岛开发区杨桥湖大道23号附9号,湖北省,武汉市,流芳,金融保险服务;银行;中国工商银行
114.40946084583578,30.461329184839364,中国民生银行(光谷实验中学社区支行),郑桥小路当代国际花园12区11号(武汉光谷实验中学对面),湖北省,武汉市,,金融保险服务;银行;中国民生银行
114.3313255800328,30.357353371931183,中国邮政储蓄银行(武汉沙羡街营业所),沙羡街7号至11号,湖北省,武汉市,纸坊,金融保险服务;银行;中国邮政储蓄银行
114.3060202926023,30.412516182745822,中国银行24小时自助银行(大花岭支行),纸坊街大花岭新街2号,湖北省,武汉市,大花岭,金融保险服务;自动提款机;中国银行ATM
114.3058235852142,30.412521537365766,中国银行股份有限公司湖北省分行武昌大花岭支行爱心驿站(工会驿站),大花岭红花路100号,湖北省,武汉市,大花岭,金融保险服务;银行;中国银行
114.42073075336414,30.459283905409755,中国农业发展银行(东湖支行),新技术开发区光谷大道77号金融港B5栋,湖北省,武汉市,流芳,金融保险服务;银行;银行
114.29967522487237,30.344667315858956,武汉农村商业银行(二道口支行),纸坊大街682号江夏信合大楼F1层,湖北省,武汉市,纸坊,金融保险服务;银行;农村商业银行
114.42534526196089,30.421775086731106,中国农业银行,湖北经济学院行政楼西门西南280米,湖北省,武汉市,藏龙岛,金融保险服务;银行;中国农业银行
114.38017206888912,30.442805096605216,中国邮政储蓄银行24小时自助银行,大学园路34号,湖北省,武汉市,,金融保险服务;自动提款机;中国邮政储蓄银行ATM
114.3214548438549,30.36685568366556,中国银行24小时自助银行(武汉弘志街支行),弘志街89号,湖北省,武汉市,纸坊,金融保险服务;自动提款机;中国银行ATM
114.30513795238635,30.350270884990852,中国银行24小时自助银行(江夏支行),兴新街351号,湖北省,武汉市,纸坊,金融保险服务;自动提款机;中国银行ATM
114.3220073095177,30.362585321642154,中国邮政储蓄银行(马山路营业所),南郡帝苑西门旁,湖北省,武汉市,纸坊,金融保险服务;银行;中国邮政储蓄银行
114.25256808791042,30.33269057309028,中国农业银行(武汉郑店支行),郑店纸金东路1号,湖北省,武汉市,郑店,金融保险服务;银行;中国农业银行
114.32153479314867,30.354324530204742,中国建设银行24小时自助银行(文华支行),纸坊新兴新街357号,湖北省,武汉市,纸坊,金融保险服务;自动提款机;中国建设银行ATM
114.54124462426127,30.463838971963973,武汉农村商业银行(万年台支行),三眼桥社区北1门西170米,湖北省,武汉市,,金融保险服务;银行;农村商业银行
114.39207977875965,30.33838724928744,武汉农村商业银行(五里界支行),界兴路158号,湖北省,武汉市,,金融保险服务;银行;农村商业银行
114.53419652273709,30.387355762187397,武汉农村商业银行(龙泉支行),老街与兴龙街交叉口西北60米,湖北省,武汉市,,金融保险服务;银行;农村商业银行
114.32609155431643,30.36347835097492,中国农业发展银行(江夏区支行),兴苑街2号,湖北省,武汉市,纸坊,金融保险服务;银行;银行
114.4416738132452,30.441088945325863,中国邮政储蓄银行24小时自助银行(流芳支行),高薪六路佛祖岭社区A区33号商铺,湖北省,武汉市,流芳,金融保险服务;自动提款机;中国邮政储蓄银行ATM
114.38721414840963,30.33828577077954,中国邮政储蓄银行(五里界支行),五里界镇,湖北省,武汉市,,金融保险服务;银行;中国邮政储蓄银行
114.31649887325354,30.367042125286062,中国工商银行24小时自助银行(江夏支行),纸坊街文化大道37号中百广场江夏店F1层,湖北省,武汉市,纸坊,金融保险服务;自动提款机;中国工商银行ATM
114.32314288983618,30.357518950299433,中国农业银行24小时自助银行(武汉欣新街支行),鸿发世纪城北门东130米,湖北省,武汉市,纸坊,金融保险服务;自动提款机;中国农业银行ATM
114.31644191578957,30.36761313909805,汉口银行24小时自助银行(江夏支行),纸坊街文化大道37号中百广场江夏店F1层,湖北省,武汉市,纸坊,金融保险服务;自动提款机;自动提款机
114.30360521661643,30.350014662994354,中国建设银行24小时自助银行(江夏支行),纸坊街兴新街357号,湖北省,武汉市,纸坊,金融保险服务;自动提款机;中国建设银行ATM
114.30752535771104,30.35056551165186,中国邮政储蓄银行(江夏区支行),纸坊街兴新街176号,湖北省,武汉市,纸坊,金融保险服务;银行;中国邮政储蓄银行
114.31863394152617,30.361002035790364,交通银行24小时自助银行(江夏支行),北华街24号富丽园大厦一楼,湖北省,武汉市,纸坊,金融保险服务;自动提款机;交通银行ATM
114.13073170407472,30.300962456861342,中国农业银行(武汉范湖支行),金口街闸东路21号附1号,湖北省,武汉市,,金融保险服务;银行;中国农业银行
114.30498917143501,30.350275151692657,中国银行股份有限公司湖北省分行江夏支行(工会驿站),兴新街351号,湖北省,武汉市,纸坊,金融保险服务;银行;中国银行
114.30575869525727,30.412364687123112,中国邮政储蓄银行24小时自助银行(大桥营业所),大桥居委会小区西2门北50米,湖北省,武汉市,大花岭,金融保险服务;自动提款机;中国邮政储蓄银行ATM
114.3821855682286,30.4770550916468,中国建设银行24小时自助银行(中南大道)(暂停营业),中南财经政法大学南湖校区文泓楼东门西70米,湖北省,武汉市,,金融保险服务;自动提款机;中国建设银行ATM
114.3231839118648,30.356485033360283,浦发银行24小时自助银行(江夏支行),江夏大道鸿发世纪城,湖北省,武汉市,纸坊,金融保险服务;自动提款机;上海浦东发展银行ATM
114.41582437615364,30.45636693557442,兴业银行24小时自助银行(武汉东湖高新科技支行),东湖高新开发区光谷大道77号光谷金融港一期A4号一层,湖北省,武汉市,流芳,金融保险服务;自动提款机;兴业银行ATM
114.31844377891429,30.36647151109005,民生村镇银行,文化路亲水大厦,湖北省,武汉市,纸坊,金融保险服务;银行;银行
114.25474364597264,30.3323128498732,中国邮政储蓄银行(郑店支行),纸金东路3号,湖北省,武汉市,郑店,金融保险服务;银行;中国邮政储蓄银行
114.12623429242367,30.336733030698788,中国邮政储蓄银行(金口支行),金口街金岭路16号,湖北省,武汉市,金口,金融保险服务;银行;中国邮政储蓄银行
114.42607191097268,30.453481677214494,中国光大银行24小时自助银行(金融港支行),东湖新技术开发区金融港四路18号普天物联网创新研发基地二期12栋,湖北省,武汉市,流芳,金融保险服务;自动提款机;中国光大银行ATM
114.34719765535225,30.087890263327168,中国农业银行(山坡支行),山坡乡新街4号、6号,湖北省,武汉市,,金融保险服务;银行;中国农业银行
114.33140544733331,30.357400213844848,中国邮政储蓄银行24小时自助银行(沙羡街营业所),齐心新社区二期东北1门西110米,湖北省,武汉市,纸坊,金融保险服务;自动提款机;中国邮政储蓄银行ATM
114.55282093339723,30.461562147239288,武汉农村商业银行24小时自助银行(豹澥支行),武汉农村商业银行(关豹高速公路南),湖北省,武汉市,,金融保险服务;自动提款机;农村商业银行ATM
114.55282093339723,30.461562147239288,武汉农村商业银行24小时自助银行(豹澥支行),武汉农村商业银行(关豹高速公路南),湖北省,武汉市,,金融保险服务;自动提款机;农村商业银行ATM
114.25253907633432,30.332727577213284,中国农业银行24小时自助银行(郑店支行),郑店街老街2号,湖北省,武汉市,郑店,金融保险服务;自动提款机;中国农业银行ATM
114.31662934173082,30.266047304455576,武汉农村商业银行(乌龙泉支行),工人村路103号,湖北省,武汉市,,金融保险服务;银行;农村商业银行
114.14717828129972,30.342606233890507,中国邮政储蓄银行(金港营业所),金口路金港新区办事处金港花园一号小区2号楼东18号,湖北省,武汉市,,金融保险服务;银行;中国邮政储蓄银行
114.31517320464673,30.353061866975228,中国农业银行24小时自助银行(武汉中心港支行),古驿道110号,湖北省,武汉市,纸坊,金融保险服务;自动提款机;中国农业银行ATM
114.19185009497168,30.38700098180645,中国建设银行(武汉通用支行)(内部专用),上汽通用大道与别克大道交叉口西南480米,湖北省,武汉市,,金融保险服务;银行;中国建设银行
114.28825859219936,30.153876220443657,武汉农村商业银行(安山支行),张兴路16号,湖北省,武汉市,,金融保险服务;银行;农村商业银行
114.35031541878332,30.088047121078503,武汉农村商业银行(山坡支行),山坡乡星明街115号,湖北省,武汉市,,金融保险服务;银行;农村商业银行
114.4255156115304,30.456128303850456,华夏银行24小时自助银行(金融港支行),光谷汇金中心1号楼,湖北省,武汉市,流芳,金融保险服务;自动提款机;华夏银行ATM
114.25454363783462,30.331942978278942,武汉农村商业银行(郑店支行),纸金东路22号,湖北省,武汉市,郑店,金融保险服务;银行;农村商业银行
114.42533027627162,30.45592111996189,交通银行24小时自助银行(武汉光谷支行),金融港路与金融港四路交叉口东南40米,湖北省,武汉市,流芳,金融保险服务;自动提款机;交通银行ATM
114.13104048752211,30.30033595748281,中国邮政储蓄银行(金水闸营业所),金口街金水闸东路34号,湖北省,武汉市,,金融保险服务;银行;中国邮政储蓄银行
114.32200530581113,30.36266631241332,中国邮政储蓄银行24小时自助银行(马山路营业所),马山路3附17附近,湖北省,武汉市,纸坊,金融保险服务;自动提款机;中国邮政储蓄银行ATM
114.30571986116095,30.411108016947818,武汉农村商业银行24小时自助银行(大桥支行),大桥居委会小区西门旁,湖北省,武汉市,大花岭,金融保险服务;自动提款机;农村商业银行ATM
114.3945162341147,30.456770908402447,武汉农村商业银行24小时自助银行(郑桥支行),大学园路16号,湖北省,武汉市,,金融保险服务;自动提款机;农村商业银行ATM
114.3803588559587,30.467558806361293,中国光大银行24小时自助银行(锦绣龙城社区支行),龙城路1号附45号,湖北省,武汉市,,金融保险服务;自动提款机;中国光大银行ATM
114.14767477758063,30.341075317185883,武汉农村商业银行(金口支行),金城一号南1门西70米,湖北省,武汉市,,金融保险服务;银行;农村商业银行
114.40944682938265,30.46133917439409,中国民生银行ATM,郑桥小路与武大园一路交叉口东南220米,湖北省,武汉市,,金融保险服务;自动提款机;中国民生银行ATM
114.37661637693354,30.454607946630265,中国建设银行24小时自助银行,汤逊湖北路与橡树路交叉口西100米,湖北省,武汉市,,金融保险服务;自动提款机;中国建设银行ATM
114.30359117475815,30.350739578795167,汉口银行(兴新街社区支行)(暂停营业),季佳·里纸坊西南门南50米,湖北省,武汉市,纸坊,金融保险服务;银行;银行
114.32684342724323,30.362311102243577,武汉农村商业银行24小时自助银行(广场支行),江夏大道158号附57号,湖北省,武汉市,纸坊,金融保险服务;自动提款机;农村商业银行ATM
114.31693419747191,30.378352369273188,湖北银行24小时自助银行(江夏支行),江郡华府西5门北90米,湖北省,武汉市,,金融保险服务;自动提款机;自动提款机
114.30884838347224,30.35009415428933,中国工商银行24小时自助银行,兴新街与复江道交叉口东100米,湖北省,武汉市,纸坊,金融保险服务;自动提款机;中国工商银行ATM
114.28752939537067,30.153600294286193,中国邮政储蓄银行(武汉市安山营业所),马安路13号,湖北省,武汉市,,金融保险服务;银行;中国邮政储蓄银行
114.12684478048654,30.30099623522506,武汉农村商业银行(范湖支行),金水闸路93号,湖北省,武汉市,,金融保险服务;银行;农村商业银行
114.30782730209965,30.345884655272503,中国农业银行24小时自助银行(武汉纸坊大街支行),纸坊大街464号(江夏支行营业室),湖北省,武汉市,纸坊,金融保险服务;自动提款机;中国农业银行ATM
114.31839243756816,30.266714886507362,中国邮政储蓄银行(武汉市乌龙泉支行),武钢矿业有限责任公司乌龙泉矿大学生公寓东南门东50米,湖北省,武汉市,,金融保险服务;银行;中国邮政储蓄银行
114.2547746872367,30.331898893332983,民生村镇银行(郑店支行),郑店街金东路9号,湖北省,武汉市,郑店,金融保险服务;银行;银行
114.4361292874494,30.43581306971045,华夏银行24小时自助银行(天纵水晶郦都社区支行),光谷一路天纵水晶郦都东门,湖北省,武汉市,流芳,金融保险服务;自动提款机;华夏银行ATM
114.36730024483106,30.39791774755354,武汉农村商业银行24小时自助银行,江夏大道与阳光二路交叉口东60米,湖北省,武汉市,庙山,金融保险服务;自动提款机;农村商业银行ATM
114.34431974976181,30.08769117569156,中国邮政储蓄银行(武汉市山坡营业所),星明街178号,湖北省,武汉市,,金融保险服务;银行;中国邮政储蓄银行
114.31697323394062,30.365587461816425,武汉农村商业银行24小时自助银行(江夏支行),纸坊街文化路33号,湖北省,武汉市,纸坊,金融保险服务;自动提款机;农村商业银行ATM
114.4606253423279,30.019690479915475,武汉农村商业银行(湖泗支行),湖泗老街,湖北省,武汉市,,金融保险服务;银行;农村商业银行
114.31515291837187,30.391607346617388,广发银行24晓时自助银行,红旗街与文化大道交叉口西南180米,湖北省,武汉市,,金融保险服务;自动提款机;广发银行ATM
114.15790952537782,30.15692277237697,中国邮政储蓄银行(法泗邮支行),法泗洲路282号,湖北省,武汉市,,金融保险服务;银行;中国邮政储蓄银行
114.1570310371078,30.156659153604256,武汉农村商业银行(法泗支行),法泗洲路304号,湖北省,武汉市,,金融保险服务;银行;农村商业银行
114.14739085969529,30.34265959600995,中国邮政储蓄银行24小时自助银行,金口大道与凤凰台街交叉口西南220米,湖北省,武汉市,,金融保险服务;自动提款机;中国邮政储蓄银行ATM
114.46108385521975,30.01971764421742,中国邮政储蓄银行(武汉市湖泗营业所),南墩街1号,湖北省,武汉市,,金融保险服务;银行;中国邮政储蓄银行
114.31354024100087,30.359634929376185,融信合投,纸坊古驿道109号(北华街地铁站A2口步行470米),湖北省,武汉市,纸坊,购物服务;特殊买卖场所;典当行|金融保险服务;银行;银行
114.54128774286839,30.46384506346097,武汉农村商业银行24小时自助银行(万年台支行),高新四路与桥北路交叉口西340米,湖北省,武汉市,,金融保险服务;自动提款机;农村商业银行ATM
114.36737064277656,30.415684076391546,自助服务,广宁医院南侧160米,湖北省,武汉市,庙山,金融保险服务;自动提款机;自动提款机
114.50301930143983,30.115587686978934,中国邮政储蓄银行(武汉市舒安营业所),梅林街37号,湖北省,武汉市,,金融保险服务;银行;中国邮政储蓄银行
114.33079001254744,30.350764397575695,交通银行ATM(学院大道),熊廷弼路特8号武汉工程科技学院,湖北省,武汉市,纸坊,金融保险服务;自动提款机;交通银行ATM
114.44457910854565,30.389290571785676,武汉农村商业银行24小时自助银行,鸿发大道与鸿发一路交叉口西200米,湖北省,武汉市,,金融保险服务;自动提款机;农村商业银行ATM
114.32391523302076,30.3620847441417,税企安财税,纸坊街道立交桥路以南(新电信大楼西边)花山美庐1栋1层8室,湖北省,武汉市,纸坊,金融保险服务;银行;银行
114.46167819202707,30.439904508242005,中国银行24小时自助银行(内部专用),光谷二路5号,湖北省,武汉市,,金融保险服务;自动提款机;中国银行ATM
114.44745811817523,30.483326901099428,中国农业银行,阅兰路与濯缨路交叉口东180米,湖北省,武汉市,,金融保险服务;银行;中国农业银行
114.41639720316026,30.456389423890784,中国建设银行24小时自助银行(武汉金融港支行),光谷大道77号金融港1.1期A4栋1-3号附近,湖北省,武汉市,流芳,金融保险服务;自动提款机;中国建设银行ATM
114.46163103418368,30.43990738679108,中国农业银行24小时自助银行,光谷二路5号,湖北省,武汉市,,金融保险服务;自动提款机;中国农业银行ATM
114.43850496733262,30.437537855366266,武汉市藏龙岛支行,富士康西路与光谷一路交叉口东南80米,湖北省,武汉市,流芳,金融保险服务;银行;银行
114.31636895908434,30.356858009760987,中国农业银行中心港分理处,沙羡街与四东巷交叉口西南40米,湖北省,武汉市,纸坊,金融保险服务;银行;中国农业银行
114.36905176518597,30.456627753944858,梦锦金服咨询审核部,关东街道华师园路湾郡,湖北省,武汉市,,金融保险服务;银行;银行
114.44112217971126,30.443223384421323,武汉农村商业银行24小时自助银行(流芳支行),佛祖岭社区B区旁,湖北省,武汉市,流芳,金融保险服务;自动提款机;农村商业银行ATM
114.40857320398169,30.469081696370584,中国建设银行24小时自助银行(关南路支行)(暂停营业),东湖新技术开发区关山大道589武汉华夏理工学院,湖北省,武汉市,,金融保险服务;自动提款机;中国建设银行ATM
114.32292109075914,30.20811006504444,中国邮政储蓄银行24小时自助银行,新街与西街交叉口西南120米,湖北省,武汉市,,金融保险服务;自动提款机;中国邮政储蓄银行ATM
114.29842495929208,30.344259504127386,中国工商银行(李家里),纸坊大街,湖北省,武汉市,纸坊,金融保险服务;银行;中国工商银行|金融保险服务;自动提款机;中国工商银行ATM
114.3773682592125,30.475140026057996,中国银行24小时自助银行,中南财经政法大学南湖校区,湖北省,武汉市,,金融保险服务;自动提款机;中国银行ATM
114.32690704252674,30.377153490679216,中国工商银行,武汉纺织大学阳光校区研究生女宿舍西南侧110米,湖北省,武汉市,,金融保险服务;银行;中国工商银行
114.37730609725025,30.477296494319624,银联卡联网通用ATM(中南大道),中南大道与明理路交叉口西300米,湖北省,武汉市,,金融保险服务;自动提款机;自动提款机
114.32330634503484,30.360738127339165,湖北银行24小时自助银行(武汉北华街支行),北华街九全嘉国际广场103B和203号商铺,湖北省,武汉市,纸坊,金融保险服务;自动提款机;自动提款机
114.35517549215778,30.24853531043718,中国邮政储蓄银行,大桥新区三岭路,湖北省,武汉市,,金融保险服务;银行;中国邮政储蓄银行
114.33001939983096,30.545369597752675,中国人民银行(湖北省分行),中南路69号(洪山广场地铁站A1口步行170米),湖北省,武汉市,中南路/中南,金融保险服务;银行相关;银行相关|金融保险服务;银行;银行
114.30119963081351,30.536065643322598,中国光大银行(首义支行),张之洞路228号(首义路地铁站A口步行120米),湖北省,武汉市,紫阳,金融保险服务;银行;中国光大银行
114.29717324907348,30.55779812174511,中国银行(武昌支行),中山路43-45号,湖北省,武汉市,积玉桥,金融保险服务;银行;中国银行
114.3387929258248,30.551750094196944,中国工商银行(武汉水果湖支行),东湖路65号(水果湖地铁站A口步行320米),湖北省,武汉市,中北路,金融保险服务;银行;中国工商银行
114.29883738305539,30.54202172838836,中国工商银行(武昌支行),黄鹤楼街街道彭刘杨路体育街口,湖北省,武汉市,武珞路,金融保险服务;银行;中国工商银行
114.31671103923048,30.58086340920121,中国工商银行(武汉徐家棚支行),和平大道750号(三角路地铁站F口步行310米),湖北省,武汉市,徐家棚,金融保险服务;银行;中国工商银行
114.34170356734062,30.56253109503025,兴业银行(武汉分行),中北路108号兴业银行大厦,湖北省,武汉市,中北路,金融保险服务;银行;兴业银行
114.32544855919518,30.53730301311404,中国建设银行(武汉省直支行),中南路与武珞路交叉口东北120米,湖北省,武汉市,武珞路,金融保险服务;银行;中国建设银行
114.30064835513878,30.53662541564053,中国建设银行(武汉武昌支行),张之洞路167号(首义路地铁站E口步行110米),湖北省,武汉市,武珞路,金融保险服务;银行;中国建设银行
114.3352352761622,30.554081817884164,中国农业银行(湖北省分行),中北路66号津津花园A座,湖北省,武汉市,水果湖,金融保险服务;银行;中国农业银行
114.341939717091,30.556768708398042,湖北银行(总行营业部),水果湖街街道杏林西路8号,湖北省,武汉市,中北路,金融保险服务;银行;银行
114.33476116982715,30.55244126666481,平安银行(武汉分行营业部),中北路54号,湖北省,武汉市,水果湖,金融保险服务;银行;平安银行
114.31787029631276,30.533234866945552,交通银行(武汉梅苑支行),紫阳东路83号(梅苑小区地铁站A口步行180米),湖北省,武汉市,紫阳,金融保险服务;银行;交通银行
114.3290922181719,30.541782566500387,招商银行(武汉武昌支行),中南路18号(中勘大厦一楼),湖北省,武汉市,中南路/中南,金融保险服务;银行;招商银行
114.33555272137397,30.589113470516118,招商银行(武汉徐东支行),友谊大道396号福客茂1楼,湖北省,武汉市,徐家棚,金融保险服务;银行;招商银行
114.30356423621275,30.536219434188702,招商银行(武汉首义支行),首义路118号(首义路地铁站D3口旁),湖北省,武汉市,紫阳,金融保险服务;银行;招商银行
114.32664859832346,30.53726373004402,中国工商银行(武汉分行),中南路2号中建广场A座(中南路天桥旁),湖北省,武汉市,武珞路,金融保险服务;银行;中国工商银行
114.33026210141519,30.544275507488784,交通银行(武汉武昌支行),中南路80号中南大厦,湖北省,武汉市,中南路/中南,金融保险服务;银行;交通银行
114.31503463541904,30.57052040206275,恒丰银行(武汉分行),友谊大道219号澜桥公馆6号楼,湖北省,武汉市,积玉桥,金融保险服务;银行;银行
114.31539914651532,30.569415111674964,国家开发银行(湖北分行),友谊大道308号,湖北省,武汉市,积玉桥,金融保险服务;银行;国家开发银行
114.30604479027869,30.556912955724478,武汉农村商业银行(武昌支行),中山路268号联盟商厦F1层,湖北省,武汉市,积玉桥,金融保险服务;银行;农村商业银行
114.34227850933382,30.56483025775657,华夏银行(武汉分行营业部),中北路217号(青鱼嘴地铁站K口步行200米),湖北省,武汉市,中北路,金融保险服务;银行;华夏银行
114.29168104467684,30.535675501466656,中信银行(武汉武昌支行),解放路168号,湖北省,武汉市,紫阳路,金融保险服务;银行;中信银行
114.3033322851621,30.56265979071328,招商银行(武汉积玉桥支行),和平大道108-8号玉桥新都裙楼(积玉桥地铁站C口旁),湖北省,武汉市,积玉桥,金融保险服务;银行;招商银行
114.3036303226943,30.53410900976747,上海浦东发展银行(武昌支行),紫阳路268号(首义路地铁站B口步行250米),湖北省,武汉市,紫阳,金融保险服务;银行;上海浦东发展银行
114.33430675269534,30.554035560592983,招商银行(中北路支行),中北路101号(楚河汉街地铁站D口步行240米),湖北省,武汉市,水果湖,金融保险服务;银行;招商银行|金融保险服务;银行相关;银行相关
114.34838283845446,30.541203975283995,湖北三峡农商银行,科技路小洪山中区70号,湖北省,武汉市,珞珈山,金融保险服务;银行;农村商业银行
114.33836269802586,30.550500306260517,招商银行(武汉水果湖支行),水果湖横路15号(洪山路地铁站D口步行200米),湖北省,武汉市,中北路,金融保险服务;银行;招商银行
114.31965611966741,30.536376422086903,中国银行(武汉梅苑支行),梅苑路22附4号(梅苑小区地铁站A口步行360米),湖北省,武汉市,丁字桥,金融保险服务;银行;中国银行
114.30223227536202,30.557941398513947,中国建设银行(武汉凤凰支行),中山路1454号(昙华林武胜门地铁站C口步行320米),湖北省,武汉市,积玉桥,金融保险服务;银行;中国建设银行
114.33775870930997,30.549627707205737,中信银行(武汉水果湖支行),水果湖横路11-13号鹏程商务中心,湖北省,武汉市,水果湖,金融保险服务;银行;中信银行
114.30560928968362,30.53553399723825,中国工商银行(武汉紫阳路支行),张之洞路268号(首义路地铁站C口步行70米),湖北省,武汉市,紫阳,金融保险服务;银行;中国工商银行
114.3481853702087,30.584025081379956,湖北银行(武汉武昌支行),徐东大街20号福星惠誉国际城,湖北省,武汉市,徐东,金融保险服务;银行;银行
114.33080032967936,30.554621944038292,中国建设银行(武汉中北路支行),水果湖街中北路81号,湖北省,武汉市,水果湖,金融保险服务;银行;中国建设银行
114.34839409706252,30.58387479168032,中国工商银行(武汉岳家嘴支行),徐东大街福星惠誉国际城8号楼1层,湖北省,武汉市,徐东,金融保险服务;银行;中国工商银行
114.34028500901755,30.547575832363258,中国民生银行(武汉水果湖支行),洪山路28号(洪山路地铁站C口步行140米),湖北省,武汉市,水果湖,金融保险服务;银行;中国民生银行
114.32871270883138,30.543244797574584,中国银行(中南一路支行),中南路街办事处中南路19号,湖北省,武汉市,中南路/中南,金融保险服务;银行;中国银行
114.33686245814081,30.557058775391155,华夏银行(武昌支行),中北路24号龙源大厦1层,湖北省,武汉市,中北路,金融保险服务;银行;华夏银行
114.34125488872303,30.589476962860665,中国建设银行(武汉徐东支行),徐家棚街徐东路32-38号中力大厦1层,湖北省,武汉市,徐东,金融保险服务;银行;中国建设银行
114.33948187298589,30.551702863439804,武汉农村商业银行(水果湖支行),东湖路48号(省直机关综合执治应急用车保障中心一楼),湖北省,武汉市,水果湖,金融保险服务;银行;农村商业银行
114.34149092676125,30.5620616393646,交通银行(武汉水果湖支行),中北路108号广泽中心1层,湖北省,武汉市,中北路,金融保险服务;银行;交通银行
114.308690937078,30.508911776860746,中国工商银行(南湖花园支行),恒安路78号(建安街地铁站D口步行170米),湖北省,武汉市,丁字桥,金融保险服务;银行;中国工商银行
114.31474346953891,30.50859455629403,平安银行(武汉南湖支行),南国风华天城枇杷湾西门旁,湖北省,武汉市,红旗,金融保险服务;银行;平安银行
114.31281747465776,30.555453948584315,中国农业银行(武汉武昌支行),中山路379号2008新长江广场A座1101室,湖北省,武汉市,积玉桥,金融保险服务;银行;中国农业银行
114.34525990747944,30.567661050230647,中国农业发展银行(湖北省分行),中北路229号(青鱼嘴地铁站G口步行60米),湖北省,武汉市,中北路,金融保险服务;银行;中国农业银行
114.32254231182519,30.53741054868705,中国民生银行(武汉东湖支行),武珞路442号中南国际城AB座1层1室,湖北省,武汉市,丁字桥,金融保险服务;银行;中国民生银行
114.33449698295641,30.547918311054193,浦发银行(水果湖支行),洪山路1号(洪山广场地铁站B5口步行170米),湖北省,武汉市,水果湖,金融保险服务;银行;上海浦东发展银行|金融保险服务;银行相关;银行相关
114.31240136025387,30.541285568152098,汉口银行(武昌支行),中山路440号,湖北省,武汉市,中南路/中南,金融保险服务;银行;银行
114.29121286074826,30.50939952420973,中国建设银行(白沙洲支行),丰收村特1号(烽火村地铁站D口步行220米),湖北省,武汉市,红旗,金融保险服务;银行;中国建设银行
114.30687842603896,30.569761866123766,兴业银行(武昌支行),和平大道219号白云边集团总部大楼1-2层,湖北省,武汉市,积玉桥,金融保险服务;银行;兴业银行
114.33093147318856,30.527537750320125,中国工商银行(百瑞景支行),中南路街道宝通寺路36号附15102号,湖北省,武汉市,丁字桥,金融保险服务;银行;中国工商银行
114.33942358229214,30.590453874724137,中国农业银行(徐东支行),徐东大街38号欧亚达建材家居生活广场F1层,湖北省,武汉市,徐家棚,金融保险服务;银行;中国农业银行
114.30418384654014,30.5418454616342,中国农业银行(武汉阅马场支行),首义路22号,湖北省,武汉市,紫阳,金融保险服务;银行;中国农业银行
114.33055260622315,30.556051914667787,中国银行(武汉中南路支行),沙湖大道40号附2号,湖北省,武汉市,水果湖,金融保险服务;银行;中国银行
114.34196130481791,30.60694290111645,中国工商银行(杨园支行),和平大道980号馨都雅园1栋1-2号商铺,湖北省,武汉市,杨园,金融保险服务;银行;中国工商银行|金融保险服务;自动提款机;中国工商银行ATM
114.32768342711209,30.53128071352811,中国工商银行(丁字桥支行),丁字桥路44号附8号,湖北省,武汉市,丁字桥,金融保险服务;银行;中国工商银行
114.33876930455169,30.593687817745536,汉口银行(徐东支行),友谊大道479号附4徐东小区21栋,湖北省,武汉市,徐东大街,金融保险服务;银行;银行
114.31610522971312,30.578410474300167,浦发银行(滨江商务区支行),三角路三角路水岸国际1楼,湖北省,武汉市,积玉桥,金融保险服务;银行;上海浦东发展银行
114.33778870464725,30.54914681711888,中国邮政储蓄银行(水果湖营业所),北环路1号(洪山路地铁站A1口步行80米),湖北省,武汉市,水果湖,金融保险服务;银行;中国邮政储蓄银行
114.34373342286949,30.564159945640277,招商银行(武汉长江绿色支行),中北路166号长江产业大厦1层,湖北省,武汉市,中北路,金融保险服务;银行;招商银行
114.33098677505441,30.54603753974218,中国工商银行(武汉武铁支行),八一路2号(洪山广场地铁站B3口步行60米),湖北省,武汉市,中南路/中南,金融保险服务;银行;中国工商银行
114.29557638987335,30.533930851738415,中国工商银行(武汉复兴路支行),复兴路48号(复兴路地铁站H口步行70米),湖北省,武汉市,紫阳,金融保险服务;银行;中国工商银行
114.33891905763085,30.54801114794916,汉口银行(水果湖支行),洪山路33号(洪山路地铁站C口步行130米),湖北省,武汉市,水果湖,金融保险服务;银行;银行
114.31509741083094,30.525822535608658,中国建设银行(武汉南湖支行),静安路8号附28号,湖北省,武汉市,丁字桥,金融保险服务;银行;中国建设银行
114.32343628885087,30.543839687798062,中国建设银行(中南二路支行),中南二路51号附1号,湖北省,武汉市,中南路/中南,金融保险服务;银行;中国建设银行
114.33765415526221,30.557850046739,汉口银行(楚河汉街支行),楚河汉街1号楚河汉街南区F2层,湖北省,武汉市,水果湖,金融保险服务;银行;银行
114.34656603306608,30.567877746339125,中国银行(武汉中北路支行),中北路124德成中心F1层,湖北省,武汉市,中北路,金融保险服务;银行;中国银行
114.32419918949807,30.5881093453526,中国银行(武汉徐家棚支行),和平大道852号(徐家棚地铁站B口步行340米),湖北省,武汉市,徐家棚,金融保险服务;银行;中国银行
114.35588803814801,30.57780825331101,兴业银行(中北支行),徐东路50号(岳家嘴地铁站3号口步行120米),湖北省,武汉市,东亭,金融保险服务;银行;兴业银行
114.33130190405603,30.527201158364015,招商银行(百瑞景社区支行),百瑞景中央生活区三期2-106商铺,湖北省,武汉市,石牌岭,金融保险服务;银行;招商银行
114.29469704030824,30.550934578892864,中国建设银行(武汉解放路支行),解放路448号(司门口黄鹤楼地铁站C口步行360米),湖北省,武汉市,司门口,金融保险服务;银行;中国建设银行
114.30182250957041,30.55041772880511,中国工商银行(武汉粮道街支行),粮道街197号附1号,湖北省,武汉市,司门口,金融保险服务;银行;中国工商银行
114.2956255748117,30.54263988464267,交通银行(武汉解放路支行),彭刘杨路239号楚江国际F1层,湖北省,武汉市,,金融保险服务;银行;交通银行
114.31375848523463,30.51501245941195,武汉农村商业银行(南苑支行),瑞安街164号(瑞安街地铁站F口步行470米),湖北省,武汉市,丁字桥,金融保险服务;银行;农村商业银行
114.31529676618642,30.50648214352177,中国建设银行(红旗支行),建安街234号,湖北省,武汉市,红旗,金融保险服务;银行;中国建设银行
114.33196568828488,30.55186969742469,中国工商银行(中北支行),中北路9号长城汇F1层,湖北省,武汉市,中北路,金融保险服务;银行;中国工商银行
114.35696275444141,30.57814354626732,中国农业银行(武汉岳家嘴支行),徐东大街50号(岳家嘴地铁站H口步行60米),湖北省,武汉市,东亭,金融保险服务;银行;中国农业银行
114.31043520634229,30.55554437203973,中国民生银行(武汉武昌支行),中山路312号凤凰大厦1层,湖北省,武汉市,积玉桥,金融保险服务;银行;中国民生银行
114.29290781171355,30.544504635096462,中国工商银行(武汉三八支行),[],湖北省,武汉市,江滩,金融保险服务;银行;中国工商银行
114.33446898914552,30.59426050905757,中国工商银行(武汉长江二桥支行),徐东大街8号徐家棚匠心城F1层,湖北省,武汉市,徐东,金融保险服务;银行;中国工商银行
114.3424895442507,30.54937129791375,中国银行(水果湖支行),惠明路1附20号(洪山路地铁站D口步行420米),湖北省,武汉市,水果湖,金融保险服务;银行;中国银行
114.32735153579944,30.5362677158588,平安银行(武汉洪山支行),武珞路449号附6号(中南路地铁站D2口步行460米),湖北省,武汉市,中南路/中南,金融保险服务;银行;平安银行
114.33884896357696,30.550327482136808,中国建设银行(武汉东湖支行),东湖路10号(洪山路地铁站D口步行230米),湖北省,武汉市,水果湖,金融保险服务;银行;中国建设银行
114.30429558157289,30.566126837557466,中国工商银行(武汉临江府支行),和平大道201号附10(积玉桥地铁站A口步行310米),湖北省,武汉市,积玉桥,金融保险服务;银行;中国工商银行
114.34968721116184,30.562516479286447,中国工商银行(复地东湖国际支行),水果湖街办事处中北路118号复地东湖国际,湖北省,武汉市,中北路,金融保险服务;银行;中国工商银行
114.29206833611137,30.538555946232915,中国银行(武汉紫阳路支行),解放路238号,湖北省,武汉市,江滩,金融保险服务;银行;中国银行
114.31257491754732,30.554769642556238,兴业银行(友谊支行),友谊大道特2号2008新长江广场裙楼,湖北省,武汉市,积玉桥,金融保险服务;银行;兴业银行
114.34133777751717,30.589323873692624,中国建设银行24小时自助银行(武汉凯旋支行),徐家棚街徐东路32-38号中力企业大厦,湖北省,武汉市,徐东,金融保险服务;自动提款机;中国建设银行ATM
114.33993082304022,30.555887602633955,中国农业银行(武汉汉街支行),楚河南路(汉街总部国际c座与d座之间),湖北省,武汉市,中北路,金融保险服务;银行;中国农业银行
114.32820821972312,30.546825547317344,中国银行(武汉何家垅支行),民主路782号洪广大酒店一楼,湖北省,武汉市,中南路/中南,金融保险服务;银行;中国银行
114.30883054509148,30.51096889576026,中国建设银行(武汉祥和支行),恒安路112号(建安街地铁站D口步行420米),湖北省,武汉市,红旗,金融保险服务;银行;中国建设银行
114.36202936701093,30.577425768738323,中国建设银行(武汉电力支行),徐东大街346-1号(梨园地铁站A口步行110米),湖北省,武汉市,东亭,金融保险服务;银行;中国建设银行
114.31486186731365,30.524908273245345,中国农业银行(梅苑支行),静安路8号,湖北省,武汉市,丁字桥,金融保险服务;银行;中国农业银行
114.3376221747536,30.546718949663664,湖北银行(武汉水果湖支行),洪山路10号洪山大厦裙楼1层(洪山路地铁站B口旁),湖北省,武汉市,水果湖,金融保险服务;银行;银行
114.33725791058076,30.60212228987489,中国建设银行(武汉杨园支行),和平大道737号(杨园铁四院地铁站D口步行100米),湖北省,武汉市,杨园,金融保险服务;银行;中国建设银行
114.3067677367235,30.55655576842896,中国邮政储蓄银行(武昌区支行),中山路338号旭辉大厦1层,湖北省,武汉市,积玉桥,金融保险服务;银行;中国邮政储蓄银行
114.35096345389061,30.563272147227437,中国建设银行(兴国北路支行),中北路东湖1号,湖北省,武汉市,中北路,金融保险服务;银行;中国建设银行
114.34228453061664,30.553018403730718,兴业银行(水果湖支行),东湖路98附1号(水果湖地铁站B口步行280米),湖北省,武汉市,水果湖,金融保险服务;银行;兴业银行
114.3178836134802,30.5754201904449,中国建设银行(友谊大道支行),徐家棚街友谊大道三角路村福星惠誉峰岚天下6号地块9栋1-2层4-6室,湖北省,武汉市,积玉桥,金融保险服务;银行;中国建设银行
114.35015968698747,30.538388001382675,中国建设银行(武汉学苑支行),珞狮北路98号湖北省科技创业大厦A座F1层,湖北省,武汉市,珞珈山,金融保险服务;银行;中国建设银行
114.31515000389643,30.50645443010291,兴业银行(建安街社区支行),水域天际1期3栋1号武商量贩旁,湖北省,武汉市,红旗,金融保险服务;银行;兴业银行
114.32397413408863,30.546985591327132,中国工商银行(武汉江南支行),民主路与民主三路交叉口西80米,湖北省,武汉市,小东门,金融保险服务;银行;中国工商银行
114.32397319971642,30.58075754743449,中国银行(武汉友谊大道支行),友谊大道371号附103号,湖北省,武汉市,徐家棚,金融保险服务;银行;中国银行
114.30543055890084,30.547049468243262,中国银行(武汉民主路支行),民主路451号,湖北省,武汉市,小东门,金融保险服务;银行;中国银行
114.34092796916971,30.60564325480152,中国银行(武汉杨园支行),和平大道745号附5号,湖北省,武汉市,杨园,金融保险服务;银行;中国银行
114.31757985168223,30.55531497067258,中国工商银行(武汉彩电中心支行),粮道街紫金村特1号(小龟山地铁站D口步行340米),湖北省,武汉市,小东门,金融保险服务;银行;中国工商银行
114.29181005678046,30.510568243496788,中国农业银行(烽火支行),乔木湾特1号郁馨花园一期11号楼1号,湖北省,武汉市,红旗,金融保险服务;银行;中国农业银行
114.3298296220812,30.52334917268334,中国建设银行(武汉百瑞景支行),宝通寺路与瑞景路交叉口东北40米,湖北省,武汉市,武珞路,金融保险服务;银行;中国建设银行
114.33804083726481,30.531653193596117,中国建设银行(亚贸支行),亚贸A座写字楼(宝通寺地铁站B口步行210米),湖北省,武汉市,武珞路,金融保险服务;银行;中国建设银行
114.35886437120907,30.535197835924514,中国银行(武大支行),八一路483号武汉大学三区综合服务大楼1层,湖北省,武汉市,珞珈山,金融保险服务;银行;中国银行
114.31435016185347,30.507856522996182,中国民生银行(武汉南湖社区支行),平安路115号,湖北省,武汉市,丁字桥,金融保险服务;银行;中国民生银行
114.31300641272233,30.51808892295006,中国建设银行(南湖花园支行),平安路353号,湖北省,武汉市,丁字桥,金融保险服务;银行;中国建设银行
114.3366451670991,30.598698756842307,中国农业银行(和平大道支行),才华街10号附2号,湖北省,武汉市,徐东大街,金融保险服务;银行;中国农业银行
114.30736167640053,30.535339878877902,中国银行(武汉大东门支行),张之洞路280号欣隆紫阳苑C栋1层商业1室,湖北省,武汉市,紫阳,金融保险服务;银行;中国银行
114.29250947320874,30.5424259631952,中国邮政储蓄银行(彭刘杨路营业所),彭刘杨路215号(彭刘杨地铁站A口步行430米),湖北省,武汉市,紫阳路,金融保险服务;银行;中国邮政储蓄银行
114.32380249245293,30.580609929819285,武汉农村商业银行(武青支行),友谊大道371号V+合伙人大厦F1层,湖北省,武汉市,徐家棚,金融保险服务;银行;农村商业银行
114.31452736864135,30.52529678271851,中国邮政储蓄银行(静安路营业所),静安路7号10栋,湖北省,武汉市,丁字桥,金融保险服务;银行;中国邮政储蓄银行
114.35168734873646,30.54223726752615,中国工商银行(武汉珞珈山支行),武汉大学第二附属小学西南门西80米,湖北省,武汉市,珞珈山,金融保险服务;银行;中国工商银行
114.29766660000415,30.557735317963072,中国工商银行(武汉积玉桥支行),中山路53号(昙华林武胜门地铁站C口步行200米),湖北省,武汉市,积玉桥,金融保险服务;银行;中国工商银行
114.32660768365263,30.53705187825988,中国工商银行24小时自助银行(武汉武珞路支行),中南路2号中建广场A座F1层,湖北省,武汉市,武珞路,金融保险服务;自动提款机;中国工商银行ATM
114.35001080244668,30.56224504930828,汉口银行(复地东湖国际支行),复地东湖国际鼎园1号门旁,湖北省,武汉市,中北路,金融保险服务;银行;银行
114.3328842287628,30.55168503427891,富邦华一银行(武汉分行),水果湖街办事处中北路9号长城汇一楼,湖北省,武汉市,水果湖,金融保险服务;银行;银行
114.32326116082051,30.537103271565194,中国农业银行(武汉大东门支行),武珞路442号中南国际城,湖北省,武汉市,中南路/中南,金融保险服务;银行;中国农业银行
114.31231347658907,30.50689364868724,湖北银行(南湖花园社区支行),建安街都市桃源1期1栋(建安街地铁站D口步行390米),湖北省,武汉市,红旗,金融保险服务;银行;银行
114.34440769288621,30.561278799432706,中国建设银行(东湖国际支行),中北路118号复地东湖国际4期2号101-104,湖北省,武汉市,中北路,金融保险服务;银行;中国建设银行
114.33451392497415,30.59417745742888,中国工商银行24小时自助银行(武汉长江二桥支行),徐东大街8号徐家棚匠心城F1层,湖北省,武汉市,徐家棚,金融保险服务;自动提款机;中国工商银行ATM
114.32843385379581,30.546803125063697,中国建设银行(武汉铁路支行),民主路782号洪广宝座F1层,湖北省,武汉市,中南路/中南,金融保险服务;银行;中国建设银行
114.34059975865124,30.57937693666506,中国工商银行(水岸星城支行),秦园东路水岸星城G11-16号,湖北省,武汉市,徐东大街,金融保险服务;银行;中国工商银行
114.31666992944935,30.5828917285926,汉口银行(绿地支行),和平大道840号绿地国际金融城2期F1层,湖北省,武汉市,徐家棚,金融保险服务;银行;银行
114.32857670296438,30.53435700770883,中国农业银行(武汉傅家坡支行),丁字桥路1号,湖北省,武汉市,丁字桥,金融保险服务;银行;中国农业银行
114.33977038985407,30.55219017491776,中国农业银行(武汉水果湖支行),东湖路54号2单元水果湖第一中学对面,湖北省,武汉市,水果湖,金融保险服务;银行;中国农业银行
114.30317779694616,30.53620812333849,平安银行(武汉首义支行),首义路118号(首义路地铁站D3口步行100米),湖北省,武汉市,武珞路,金融保险服务;银行;平安银行
114.32481866896565,30.53640651561101,上海浦东发展银行(中南支行),中南路街街道中南国际城C座,湖北省,武汉市,武珞路,金融保险服务;银行;上海浦东发展银行
114.35620591695975,30.563475989469143,中国农业银行(梅岭支行),东湖路137-1号,湖北省,武汉市,中北路,金融保险服务;银行;中国农业银行
114.33826487521016,30.550201586956952,广发银行(武昌支行),水果湖横路11-13号时尚名都,湖北省,武汉市,中北路,金融保险服务;银行;广发银行
114.31598520224466,30.511770236939277,华夏银行(南国SOHO社区支行),雅安街346号,湖北省,武汉市,丁字桥,金融保险服务;银行;华夏银行
114.3185339194247,30.5827602216692,中国建设银行24小时自助银行(武汉和平大道绿地支行),和平大道绿地国际金融城(三角路地铁站A口步行270米),湖北省,武汉市,徐家棚,金融保险服务;自动提款机;中国建设银行ATM
114.35014565920739,30.573276853219284,上海浦东发展银行(沙湖支行),中北路265号(东亭地铁站C出口),湖北省,武汉市,徐东大街,金融保险服务;银行;上海浦东发展银行
114.3056781962334,30.546987042706306,汉口银行(黄鹤楼支行),民主路455号,湖北省,武汉市,小东门,金融保险服务;银行;银行
114.34110010466449,30.578215473889443,招商银行(水岸星城社区支行),徐东二路2号水岸星城A栋1层1-2号(秦园路118号附43),湖北省,武汉市,徐东大街,金融保险服务;银行;招商银行
114.30481189707936,30.565267221113686,中国农业银行(武汉临江支行),和平大道300号(积玉桥地铁站D口步行140米),湖北省,武汉市,积玉桥,金融保险服务;银行;中国农业银行
114.33582608083516,30.557100671231463,中国工商银行24小时自助银行(武汉楚河街支行),中北路31号(楚河汉街地铁站C口旁),湖北省,武汉市,中北路,金融保险服务;自动提款机;中国工商银行ATM
114.3167582550243,30.55446183350575,中国建设银行(武汉紫沙路支行),紫沙路204附22号(小龟山地铁站A口步行410米),湖北省,武汉市,小东门,金融保险服务;银行;中国建设银行
114.31498463048648,30.525372892729322,中国工商银行(静安上城支行),静安路8号附34号,湖北省,武汉市,丁字桥,金融保险服务;银行;中国工商银行
114.33421190747829,30.553990752975682,招商银行24小时自助银行(中北路支行),楚河汉街地铁站D口步行280米,湖北省,武汉市,水果湖,金融保险服务;自动提款机;招商银行ATM
114.31107666192614,30.56181797158825,武汉农村商业银行友谊大道支行,积玉桥街道友谊大道19号友谊国际广场2栋,湖北省,武汉市,积玉桥,金融保险服务;银行;农村商业银行|生活服务;生活服务场所;生活服务场所
114.34242281692835,30.547379095936417,中国工商银行(东一路支行),东三路2号(洪山路地铁站C口步行410米),湖北省,武汉市,水果湖,金融保险服务;银行;中国工商银行
114.34883449770263,30.560963427739335,中国银行(东湖分行复地国际支行),中北路118号(中南医院地铁站D口步行450米),湖北省,武汉市,中北路,金融保险服务;银行;中国银行
114.33295790528625,30.58848154865418,中国农业银行(武汉秦园路支行),团结路12号佳馨花园1层,湖北省,武汉市,徐东,金融保险服务;银行;中国农业银行
114.33017432121895,30.554880039660386,湖北银行(武汉东湖路支行),中北路81号(东湖大厦对面)平安财富中心A座1层,湖北省,武汉市,水果湖,金融保险服务;银行;银行
114.3475254828125,30.570273264821314,中国农业银行武汉滨湖支行,东信资本大厦东南门旁(青鱼嘴地铁站F口步行320米),湖北省,武汉市,,金融保险服务;银行;中国农业银行
114.33379718923396,30.54685697790348,中国农业银行(武汉洪山广场支行),洪山路2号科教大厦B座1层,湖北省,武汉市,水果湖,金融保险服务;银行;中国农业银行
114.3051333832506,30.565717482287692,交通银行(武汉积玉桥支行),和平大道336号咸宁大厦1层,湖北省,武汉市,积玉桥,金融保险服务;银行;交通银行
114.31803472376185,30.582838146162135,中国农业银行(武汉绿地中心支行),和平大道515号附6108号,湖北省,武汉市,徐家棚,金融保险服务;银行;银行
114.31969624228319,30.534209057376508,中国邮政储蓄银行(梅苑营业所),梅苑路17附6号东南街道办事处对面,湖北省,武汉市,丁字桥,金融保险服务;银行;中国邮政储蓄银行
114.31245390295372,30.534063859167208,中国邮政储蓄银行24小时自助银行,紫阳东路与中山路辅路交叉口东南140米,湖北省,武汉市,紫阳,金融保险服务;自动提款机;中国邮政储蓄银行ATM
114.32997902530116,30.58489052958191,中国农业银行(友谊大道支行),友谊大道380号湖北大学旁边,湖北省,武汉市,徐家棚,金融保险服务;银行;中国农业银行
114.32426070610106,30.58101290092853,广发银行(徐东支行),友谊大道371号合伙人大厦1层(湖北大学地铁站A口旁),湖北省,武汉市,徐家棚,金融保险服务;银行;广发银行
114.30012422539396,30.558126001104405,汉口银行(积玉桥支行),和平大道7号汉宫商业B一楼,湖北省,武汉市,积玉桥,金融保险服务;银行;银行
114.31374485899681,30.545578594966887,交通银行(武汉大东门支行),中山路317号现代大厦北座,湖北省,武汉市,中南路/中南,金融保险服务;银行;交通银行
114.32855797851363,30.54304216029676,中国光大银行(武汉中南支行),中南二路2号中南建筑设计院1层,湖北省,武汉市,中南路/中南,金融保险服务;银行;中国光大银行
114.31919939782769,30.54174751140728,中国工商银行(凯乐花园支行),武珞路五巷46号,湖北省,武汉市,中南路/中南,金融保险服务;银行;中国工商银行
114.3531363348967,30.54415634649972,中国银行(武汉珞珈山支行),东湖南路8号,湖北省,武汉市,珞珈山,金融保险服务;银行;中国银行
114.35582290788228,30.568743666859923,交通银行(武汉东亭支行),黄鹂路39号(省博湖北日报地铁站D口步行480米),湖北省,武汉市,东亭,金融保险服务;银行;交通银行
114.36240101055643,30.577293329709114,汉口银行(华电支行),徐东大街344附6号(梨园地铁站A口步行80米),湖北省,武汉市,东亭,金融保险服务;银行;银行
114.3279646221095,30.546768031223404,汉口银行(中南路支行),民主路洪广大酒店1层,湖北省,武汉市,中南路/中南,金融保险服务;银行;银行
114.34268465931076,30.544736531319785,中国农业银行(东三路支行),东三路32号,湖北省,武汉市,水果湖,金融保险服务;银行;中国农业银行
114.33187989201755,30.528123772027012,汉口银行(百瑞景支行),百瑞景中央生活区五期东区西北门旁,湖北省,武汉市,丁字桥,金融保险服务;银行;银行
114.35748809972017,30.567322736995724,中国工商银行(武汉东亭支行),黄鹂路65号(省博湖北日报地铁站D口步行270米),湖北省,武汉市,东亭,金融保险服务;银行;中国工商银行
114.30573128293938,30.568172521567902,中国建设银行股份有限公司武汉滨江支行爱心驿站(工会驿站),和平大道203号48-52号,湖北省,武汉市,积玉桥,金融保险服务;银行;中国建设银行
114.32688491950745,30.54062816073666,中国农业银行(武汉天紫广场支行),中南路特9号中南天紫广场a馆F1层,湖北省,武汉市,中南路/中南,金融保险服务;银行;中国农业银行
114.3594497634802,30.53487412255538,中国工商银行24小时自助银行(武大支行),武汉大学武测校区11栋学生楼1层,湖北省,武汉市,珞珈山,金融保险服务;自动提款机;中国工商银行ATM
114.33075280059563,30.527095230135256,兴业银行(百瑞景社区支行),宝通寺路与武锅路交叉口西南120米,湖北省,武汉市,石牌岭,金融保险服务;银行;兴业银行
114.30290197898795,30.550266882336242,中国农业银行(武汉胭脂路支行),粮道街223号附5号,湖北省,武汉市,司门口,金融保险服务;银行;中国农业银行
114.30415020803345,30.549794827466545,中国邮政储蓄银行(胭脂路支行),胭脂路胭脂商城14号,湖北省,武汉市,小东门,金融保险服务;银行;中国邮政储蓄银行
114.3069912358778,30.569992576990657,中信银行(积玉桥支行),积玉桥街办事处和平大道219白云边大厦,湖北省,武汉市,积玉桥,金融保险服务;银行;中信银行
114.30606262090025,30.535453204287627,中国邮政储蓄银行(紫阳路营业所),张之洞路268号(首义路地铁站C口步行110米),湖北省,武汉市,紫阳,金融保险服务;银行;中国邮政储蓄银行
114.33589596079536,30.557215501838826,渤海银行(武汉武昌支行),中北路辅路与公正路交叉口北60米,湖北省,武汉市,水果湖,金融保险服务;银行;银行
114.34115089255478,30.579769806049352,中国建设银行(武汉水岸星城支行),水岸星城B区东门附近,湖北省,武汉市,徐东大街,金融保险服务;银行;中国建设银行
114.31082707585405,30.573074382842083,中国农业银行(武汉积玉桥支行),徐家棚街街道和平大道666号附近,湖北省,武汉市,积玉桥,金融保险服务;银行;中国农业银行
114.30456978112193,30.536058693511336,汉口银行(首义支行),张之洞路243号(首义路地铁站D2入口旁),湖北省,武汉市,紫阳,金融保险服务;银行;银行
114.29339402171561,30.54677409458349,汉口银行(解放路支行),解放路429号,湖北省,武汉市,司门口,金融保险服务;银行;银行
114.30554138878952,30.535555112813945,中国工商银行24小时自助银行(武汉紫阳路支行),紫阳路268号(首义路地铁站C口步行60米),湖北省,武汉市,紫阳,金融保险服务;自动提款机;中国工商银行ATM
114.35140479547714,30.56421710497197,招商银行(锦绣江南社区支行),中北路126号锦绣江南4期28栋2号,湖北省,武汉市,中北路,金融保险服务;银行;招商银行
114.29594917632576,30.55400447383573,中国光大银行(黄鹤楼支行),解放路466-472号,湖北省,武汉市,积玉桥,金融保险服务;银行;中国光大银行
114.32513607084643,30.537305610725102,中国建设银行24小时自助银行(武汉省直支行),中南路1号(中南路地铁站C2口步行310米),湖北省,武汉市,中南路/中南,金融保险服务;自动提款机;中国建设银行ATM
114.33146799061626,30.55761263842442,中国光大银行(武汉汉街支行),公正路216号安顺月光广场16栋平安国际金融大厦1层C区,湖北省,武汉市,中北路,金融保险服务;银行;中国光大银行
114.31835221582355,30.582748573282327,中国建设银行(和平大道绿地支行),和平大道与学院路交叉口西100米(三角路地铁站E口旁),湖北省,武汉市,徐家棚,金融保险服务;银行;中国建设银行
114.31155333610218,30.556962791831772,汉口银行(中山路支行),友谊大道1号(螃蟹岬地铁站D1口步行90米),湖北省,武汉市,积玉桥,金融保险服务;银行;银行
114.30906296166427,30.513586667067802,广发银行(中央花园社区支行),恒安路101号泛悦坊F1层,湖北省,武汉市,丁字桥,金融保险服务;银行;广发银行
114.34294028961777,30.544645113081327,中国银行(武汉刘家湾支行),东三路附7号,湖北省,武汉市,水果湖,金融保险服务;银行;中国银行
114.34598390327253,30.56733493012856,中国光大银行(中北支行),中北路122号东沙大厦1层,湖北省,武汉市,中北路,金融保险服务;银行;中国光大银行
114.3416247920738,30.584226294970417,汉口银行(长城嘉苑支行),徐东路40号长城嘉苑小区门口12号楼4-5号商铺,湖北省,武汉市,徐东,金融保险服务;银行;银行
114.32000384012586,30.533061843422587,汉口银行(梅苑支行),傅家坡紫阳东路77号伟鹏大厦1层,湖北省,武汉市,丁字桥,金融保险服务;银行;银行
114.31835820808382,30.582725570458045,中国建设银行股份有限公司武汉绿地支行爱心驿站(工会驿站),和平大道515附5102、5103号,湖北省,武汉市,徐家棚,金融保险服务;银行;中国建设银行
114.36046572444091,30.56873804311224,招商银行24小时自助银行(181产业园自助银行),东湖路181号楚天181文化创意产业园3号楼楚天181文化创意产业园3号楼,湖北省,武汉市,东亭,金融保险服务;自动提款机;招商银行ATM
114.32799687114061,30.577783954932837,中国银行(武汉湖大支行),友谊大道118号湖北大学,湖北省,武汉市,徐家棚,金融保险服务;银行;中国银行
114.32142745272778,30.545291050172676,湖北银行(中南路社区支行),中南二路16号中南龙庭1层,湖北省,武汉市,小东门,金融保险服务;银行;银行
114.34717372331797,30.584570566268116,中国农业发展银行(湖北省分行营业部),徐东大街110号联发国际大厦F1层,湖北省,武汉市,徐东,金融保险服务;银行;银行
114.3088992647213,30.512991151639177,汉口银行(恒安路社区支行),恒安路144号(瑞安街地铁站E口步行240米),湖北省,武汉市,红旗,金融保险服务;银行;银行
114.32082930291593,30.54676469700843,中国农业银行(武汉何家垅支行),民主路719号附4号,湖北省,武汉市,中南路/中南,金融保险服务;银行;中国农业银行
114.35469519527516,30.569492090182905,中国邮政储蓄银行(东亭支行),东亭一路1号,湖北省,武汉市,中北路,金融保险服务;银行;中国邮政储蓄银行
114.31039978585599,30.572566363725237,湖北银行(融侨支行),和平大道(三层楼地铁站B口步行70米),湖北省,武汉市,积玉桥,金融保险服务;银行;银行
114.29395493453468,30.51657600811405,武汉农村商业银行(陆家街支行),白沙洲大道509号(省财税职业学院旁),湖北省,武汉市,红旗,金融保险服务;银行;农村商业银行
114.32737104487263,30.530041711115263,湖北银行(武汉丁字桥社区支行),丁字桥路35号附2号,湖北省,武汉市,丁字桥,金融保险服务;银行;银行
114.34405871035598,30.56688740245838,武汉农村商业银行(中北路支行),中北路223号碳汇大厦商1号,湖北省,武汉市,,金融保险服务;银行;农村商业银行
114.33110363041878,30.534031320307616,广发银行,宝通寺地铁站A口步行380米,湖北省,武汉市,中南路/中南,金融保险服务;银行;广发银行
114.35023025349159,30.553737679609185,中国工商银行(武汉高家湾支行),东湖路140号,湖北省,武汉市,,金融保险服务;银行;中国工商银行
114.33343611071706,30.58881452582761,中国邮政储蓄银行(佳馨花园社区支行),佳馨花园2期东南门旁,湖北省,武汉市,徐东,金融保险服务;银行;中国邮政储蓄银行
114.34836785565152,30.54124198739731,三峡农商银行24小时自助银行(武昌支行)(暂停营业),水果湖街小洪山中区70号,湖北省,武汉市,珞珈山,金融保险服务;自动提款机;农村商业银行ATM
114.34195132181328,30.606918928330057,中国工商银行24小时自助银行(武汉杨园支行),和平大道753-12号附近,湖北省,武汉市,杨园,金融保险服务;自动提款机;中国工商银行ATM
114.34184649015727,30.606784167627826,汉口银行(杨园支行),和平大道751号馨都雅园1栋1层7-8号汉口银行杨园支行湖北,湖北省,武汉市,杨园,金融保险服务;银行;银行
114.35091947208966,30.609470734942576,中国银行(武汉理工大学支行),和平大道1178号武汉理工大学余家头校区,湖北省,武汉市,杨园,金融保险服务;银行;中国银行
114.34432082878008,30.56116499013831,中国建设银行24小时自助银行(东湖国际支行),兴沪路,湖北省,武汉市,中北路,金融保险服务;自动提款机;中国建设银行ATM
114.30864462291359,30.559577272081228,中国邮政储蓄银行(中山路支行),公平路16号附4号,湖北省,武汉市,积玉桥,金融保险服务;银行;中国邮政储蓄银行
114.30314684140349,30.53621117714275,中国邮政储蓄银行(首义路支行),张之洞路219号(首义路地铁站D3口步行120米),湖北省,武汉市,紫阳,金融保险服务;银行;中国邮政储蓄银行
114.32904329706837,30.541790656818215,招商银行24小时自助银行(武汉武昌支行),中南路与中南二路交叉口东南60米,湖北省,武汉市,中南路/中南,金融保险服务;自动提款机;招商银行ATM
114.30566238914952,30.568130661098916,中国建设银行(万达广场支行),积玉桥街办事处积玉桥万达广场2期9号楼,湖北省,武汉市,积玉桥,金融保险服务;银行;中国建设银行
114.3294302314606,30.52380078781683,武汉农村商业银行百瑞景支行,宝通寺路百瑞景商业街4号楼4-10154-1016号临街商铺,湖北省,武汉市,武珞路,金融保险服务;银行;农村商业银行
114.3159145601295,30.578141936233305,中国民生银行(武汉水岸国际社区支行),和平大道三角路福星惠誉水岸国际K4-1栋1-1号,湖北省,武汉市,积玉桥,金融保险服务;银行;中国民生银行
114.31497464206666,30.525423895398976,中国工商银行24小时自助银行(静安上城支行),静安路8号附34号,湖北省,武汉市,丁字桥,金融保险服务;自动提款机;中国工商银行ATM
114.30845497832986,30.570367760918725,中国光大银行(积玉桥支行),和平大道508号欧林湾2栋第8-9号,湖北省,武汉市,积玉桥,金融保险服务;银行;中国光大银行
114.33885095720083,30.550365465474417,中国建设银行24小时自助银行(武汉东湖支行),东湖路10号(洪山路地铁站D口步行200米),湖北省,武汉市,水果湖,金融保险服务;自动提款机;中国建设银行ATM
114.31360555115327,30.51706011436188,中国邮政储蓄银行(南湖花园邮政所),宁静苑西南门北80米,湖北省,武汉市,丁字桥,金融保险服务;银行;中国邮政储蓄银行
114.30442039301293,30.566190591518488,中国工商银行24小时自助银行(武汉临江府支行),积玉桥地铁站A口步行300米,湖北省,武汉市,积玉桥,金融保险服务;自动提款机;中国工商银行ATM
114.13939758826447,30.62636828840462,中国建设银行(东西湖支行),东吴大道1289号,湖北省,武汉市,吴家山,金融保险服务;银行;中国建设银行
114.13072110722659,30.625571580978058,中国工商银行(东吴大道储蓄所),东吴大道796-798号,湖北省,武汉市,吴家山,金融保险服务;银行;中国工商银行
114.14452252351529,30.633699675089094,中国农业银行(武汉东西湖支行),二雅路79号(二雅路地铁站A口步行300米),湖北省,武汉市,吴家山,金融保险服务;银行;中国农业银行
114.13568844985097,30.622762990681483,招商银行(武汉东西湖支行),吴家山田园街113号,湖北省,武汉市,吴家山,金融保险服务;银行;招商银行
114.20065991922904,30.642504074268267,招商银行(武汉临空港支行),金银湖路20号武汉欧亚会展国际酒店1层,湖北省,武汉市,金银湖,金融保险服务;银行;招商银行
114.23048794490674,30.646285545936024,中国工商银行(常青花园支行),常青花园学府北路37号,湖北省,武汉市,常青,金融保险服务;银行;中国工商银行
114.23511377029428,30.64142462186,招商银行(武汉常青支行),养殖农场机场路东马池路南常青花园8号地块B区Z2栋1-2层商1-商2营业,湖北省,武汉市,常青,金融保险服务;银行;招商银行
114.13564911752336,30.625406838035897,中国建设银行(吴南支行),四明路,湖北省,武汉市,吴家山,金融保险服务;银行;中国建设银行
114.0234859065057,30.65261971115176,中国农业银行(武汉走马岭支行),走马岭办事处东西湖大道828号,湖北省,武汉市,走马岭,金融保险服务;银行;中国农业银行
114.14568589097429,30.63130666727542,汉口银行(东西湖支行),吴中街556号,湖北省,武汉市,吴家山,金融保险服务;银行;银行
114.13658343739257,30.625736130399613,中信银行(东西湖支行),东吴大道1018号西湖广场1楼,湖北省,武汉市,吴家山,金融保险服务;银行;中信银行
114.23523684104192,30.642123363683105,中国建设银行(武汉常青花园支行),常青花园中路117号附8号,湖北省,武汉市,常青,金融保险服务;银行;中国建设银行
114.13258096341515,30.620944132106736,中国农业银行(武汉吴家山支行),鸿达中央广场西门南60米,湖北省,武汉市,长青,金融保险服务;银行;中国农业银行
114.23163727525157,30.647438610999615,中国农业银行(武汉常青花园支行),常青花园学府北路53号四小区旁,湖北省,武汉市,常青,金融保险服务;银行;中国农业银行
114.13596371762705,30.627535432412202,中国银行(武汉东西湖支行),吴祁街78号,湖北省,武汉市,吴家山,金融保险服务;银行;中国银行
114.13245153906347,30.622205426896652,交通银行(武汉东西湖支行),吴家山临空港大道158号附3号,湖北省,武汉市,长青,金融保险服务;银行;交通银行
114.21669199595709,30.651891676780398,交通银行(武汉金银湖支行),金银湖马池路三江航天银湖湾1栋,湖北省,武汉市,,金融保险服务;银行;交通银行
114.14507432985694,30.630160102037806,中国工商银行(武汉二雅路支行),二雅路198号天合新界1号楼商铺1层,湖北省,武汉市,吴家山,金融保险服务;银行;中国工商银行
114.15280104454814,30.63838623585354,中国农业银行(金山大道支行),金山大道与张柏路交汇处,湖北省,武汉市,三店,金融保险服务;银行;中国农业银行
114.22583109597274,30.640245368066903,中国银行(武汉青年支行),常青花园常青北路240-1号,湖北省,武汉市,常青,金融保险服务;银行;中国银行
114.13247062266294,30.621781628779924,兴业银行(临空港支行),五环大道98号亿达华庭,湖北省,武汉市,吴家山,金融保险服务;银行;兴业银行
114.14503028528588,30.629311382117187,中国建设银行(二雅路支行),二雅路天合新界198号(财政局斜对面),湖北省,武汉市,吴家山,金融保险服务;银行;中国建设银行
114.13907835814722,30.630927874765593,中国邮政储蓄银行(东西湖区支行),园艺花城17-1-2层2室,湖北省,武汉市,吴家山,金融保险服务;银行;中国邮政储蓄银行
114.13568412827823,30.626275530732602,华夏银行(东西湖支行),吴家山东吴大道138号,湖北省,武汉市,吴家山,金融保险服务;银行;华夏银行
114.23789362034537,30.652398667322647,汉口银行(金银潭支行),康居五路18号金银潭广场F1层,湖北省,武汉市,常青,金融保险服务;银行;银行
114.24735937353584,30.654595264170638,中国农业银行(武汉将军路支行),将军新村二期西1门旁,湖北省,武汉市,,金融保险服务;银行;中国农业银行
114.12688655013908,30.622452717545787,中国银行(武汉吴家山支行),田园街92号,湖北省,武汉市,吴家山,金融保险服务;银行;中国银行
114.21602614298635,30.659113823638375,中国工商银行(马池中路支行),马池中路9号,湖北省,武汉市,,金融保险服务;银行;中国工商银行
114.22696298220707,30.637309367765305,中国建设银行(金山支行),康居二路2号,湖北省,武汉市,常青,金融保险服务;银行;中国建设银行
114.13305606410462,30.644103071051866,湖北银行(武汉临空港开发区支行),五环时尚广场6栋,湖北省,武汉市,三店,金融保险服务;银行;银行
114.13597073134176,30.62757942479064,中国银行股份有限公司湖北省分行硚口支行东西湖支行(爱心驿站),吴家山街道吴祁街78号,湖北省,武汉市,吴家山,金融保险服务;银行;中国银行
114.13551601876563,30.622761729527653,招商银行24小时自助银行(东西湖支行),吴家山田园街113号兆丰花园4号,湖北省,武汉市,长青,金融保险服务;自动提款机;招商银行ATM
114.13657104700717,30.652392732888615,中国工商银行24小时自助银行(三店大道支行),三店大道御龙湾3栋1层商2-5号,湖北省,武汉市,三店,金融保险服务;自动提款机;中国工商银行ATM
114.13565235714697,30.622789924750116,平安银行(武汉东西湖支行),吴家山街四明路205号,湖北省,武汉市,吴家山,金融保险服务;银行;平安银行
114.1968777398904,30.63109528886742,中国建设银行(武汉金银湖支行),金银湖路银湖御品四号楼5-6号商铺,湖北省,武汉市,金银湖,金融保险服务;银行;中国建设银行
114.27253092424463,30.67512035196814,中国农业银行(金银潭支行),武汉客厅A栋(宏图大道地铁站B口步行190米),湖北省,武汉市,,金融保险服务;银行;中国农业银行
114.13122529654513,30.62563926017352,中国工商银行24小时自助银行(东西湖支行营业室),东吴大道796-798号,湖北省,武汉市,长青,金融保险服务;自动提款机;中国工商银行ATM
114.27041597719551,30.675358334458082,中国工商银行(武汉宏图大道支行),宏图路33号金银潭现代企业城A1栋1楼7-8号房,湖北省,武汉市,,金融保险服务;银行;中国工商银行
114.13966087204543,30.630895820277328,湖北银行(武汉东西湖支行),吴中街470号,湖北省,武汉市,吴家山,金融保险服务;银行;银行
114.19895352010528,30.63456296023527,中国工商银行(武汉海关支行),金银湖南三街与金银湖路交叉口东南60米,湖北省,武汉市,金银湖,金融保险服务;银行;中国工商银行
114.23374211753375,30.65471133827432,中国银行(金银潭支行),美联·奥林匹克花园二期南门旁,湖北省,武汉市,,金融保险服务;银行;中国银行
114.20001566047054,30.639333497159168,中国银行(中小企业支行),金银湖路18号财富大厦1-2层,湖北省,武汉市,金银湖,金融保险服务;银行;中国银行
114.14990759196608,30.653373558696458,汉口银行(径河支行),二十四城营销中心旁,湖北省,武汉市,三店,金融保险服务;银行;银行
114.16690335269904,30.664611958212035,中国工商银行,环湖中路43号恒大城市广场F1层,湖北省,武汉市,,金融保险服务;银行;中国工商银行
114.14455195617582,30.629698406640905,中国民生银行(武汉东西湖支行),天合新界西1门西80米,湖北省,武汉市,吴家山,金融保险服务;银行;中国民生银行
114.13649922458387,30.625738000015286,中国邮政储蓄银行(吴家山支行),西湖广场1层,湖北省,武汉市,吴家山,金融保险服务;银行;中国邮政储蓄银行
114.10052103402703,30.620374333110398,中国农业银行(五金城支行),东西湖大道5661号,湖北省,武汉市,,金融保险服务;银行;中国农业银行
114.23478943528747,30.64126757621276,湖北银行(武汉常青花园支行),新世界·常青二分之一中心西南1门旁,湖北省,武汉市,常青,金融保险服务;银行;银行
114.19689778690551,30.631125306979204,中国建设银行24小时自助银行(金银湖支行),金银湖南街裕亚银湖城-南苑,湖北省,武汉市,金银湖,金融保险服务;自动提款机;中国建设银行ATM
114.1841232928201,30.63112317131448,汉口银行(金银湖社区支行),金银湖南街1号附15号,湖北省,武汉市,金银湖,金融保险服务;银行;银行
114.15278198854692,30.638410191158314,中国农业银行24小时自助银行(武汉金山大道支行),金山大道与张柏路交汇处沿海赛洛城营销中心1层,湖北省,武汉市,三店,金融保险服务;自动提款机;中国农业银行ATM
113.94587965887246,30.69775963521423,中国邮政储蓄银行(新沟营业所),市场街35号,湖北省,武汉市,新沟,金融保险服务;银行;中国邮政储蓄银行
114.13740406534919,30.61955594825413,中国邮政储蓄银行(东西湖四明路支行),东西湖大道辅路与田园中路交叉口西南100米,湖北省,武汉市,吴家山,金融保险服务;银行;中国邮政储蓄银行
114.14507840874005,30.629391430707656,中国建设银行24小时自助银行(二雅路社区支行),二雅路198号天合新界5号楼1层5号,湖北省,武汉市,吴家山,金融保险服务;自动提款机;中国建设银行ATM
114.13654497858937,30.65242168005846,中国工商银行(武汉三店支行),三店大道御龙湾3栋1层商2-5号,湖北省,武汉市,三店,金融保险服务;银行;中国工商银行
114.13689221938374,30.62572761053289,浦发银行(东西湖支行),西湖广场(北冰洋城市广场北),湖北省,武汉市,吴家山,金融保险服务;银行;上海浦东发展银行
114.1479440783576,30.620036255168195,中国建设银行(舵落口支行),东西湖大道特1号舵落口大市场特1号,湖北省,武汉市,,金融保险服务;银行;中国建设银行
114.13227710365075,30.622372107292726,汉口银行(临空港大道支行),临空港大道田园街102号,湖北省,武汉市,长青,金融保险服务;银行;银行
114.14457287670535,30.619905496454617,中国民生银行(吴家山开发区支行),G107国道7110号东建金鼎湾2栋1-3层,湖北省,武汉市,吴家山,金融保险服务;银行;中国民生银行
114.11072965518149,30.62739202407611,武汉农村商业银行(鑫城宜居支行),东吴大道1188号附6号,湖北省,武汉市,长青,金融保险服务;银行;农村商业银行
114.13999989462103,30.640630239200515,中国邮政储蓄银行(易家湾营业所),径河街易家湾200号附41号,湖北省,武汉市,三店,金融保险服务;银行;中国邮政储蓄银行
114.2383149988902,30.652579684993842,兴业银行(常青金银潭社区支行),常青花园恒大御景西门北120米,湖北省,武汉市,常青,金融保险服务;银行;兴业银行
114.12684345424931,30.62244466530748,中国银行24小时自助银行(吴家山支行),田园街92号,湖北省,武汉市,吴家山,金融保险服务;自动提款机;中国银行ATM
114.23141502036957,30.64723959187272,中国邮政储蓄银行(学府北路营业所),学府北路45号,湖北省,武汉市,常青,金融保险服务;银行;中国邮政储蓄银行
114.14509939865206,30.630151148550166,中国工商银行24小时自助银行(二雅路支行),二雅路198号天合新界1号楼商铺1层,湖北省,武汉市,吴家山,金融保险服务;自动提款机;中国工商银行ATM
114.23530490883705,30.642174364676894,中国建设银行24小时自助银行(常青花园支行),常青花园中路117号附7号,湖北省,武汉市,常青,金融保险服务;自动提款机;中国建设银行ATM
114.21719448657957,30.656801007640777,中国农业银行24小时自助银行(外环东路),马池路武汉轻工大学金银湖校区,湖北省,武汉市,,金融保险服务;自动提款机;中国农业银行ATM
114.2000106517093,30.639296505644044,中国银行24小时自助银行(武汉金银湖支行),金银湖路18号财富大厦F2层,湖北省,武汉市,金银湖,金融保险服务;自动提款机;中国银行ATM
114.23488553844395,30.64127460709449,汉口银行(常青花园支行),常青花园新区街道常青花园八号地块B区Z2栋1-2层商4/商5号,湖北省,武汉市,常青,金融保险服务;银行;银行
114.13889183038542,30.63144336138062,广发银行(东西湖支行),吴中街393号,湖北省,武汉市,吴家山,金融保险服务;银行;广发银行
114.14797920627271,30.619685460276873,中国农业银行(武汉舵落口支行),鸿达广东名家具生活馆东门旁,湖北省,武汉市,,金融保险服务;银行;中国农业银行
114.22777705745678,30.638070552752033,浦发银行,常青花园康居二路1号附13号,湖北省,武汉市,常青,金融保险服务;银行;上海浦东发展银行
114.151260192111,30.644161983486597,华夏银行(社区支行),沿海赛洛城4A-3-6号,湖北省,武汉市,三店,金融保险服务;银行;华夏银行
114.23531998397891,30.641488664201948,中国民生银行(常青社区支行),常青花园中路Z3-17号,湖北省,武汉市,常青,金融保险服务;银行;中国民生银行
113.97850253615347,30.684834197390998,中国农业银行(武汉油纱路支行),油纱路86号,湖北省,武汉市,,金融保险服务;银行;中国农业银行
114.13565914952146,30.625328885586917,中国建设银行24小时自助银行(吴南支行),四明路,湖北省,武汉市,吴家山,金融保险服务;自动提款机;中国建设银行ATM
114.15964888633788,30.68100887519346,武汉农村商业银行(径河支行),径河十字路13号,湖北省,武汉市,,金融保险服务;银行;农村商业银行
114.23392049355952,30.641095328014327,武汉农村商业银行常青支行,新世界·常青二分之一中心西南1门旁,湖北省,武汉市,常青,金融保险服务;银行;农村商业银行
114.20057471514798,30.64252594167842,招商银行24小时自助银行(武汉金银湖支行),金银湖路20号武汉欧亚会展国际酒店1层,湖北省,武汉市,金银湖,金融保险服务;自动提款机;招商银行ATM
114.15208803638842,30.63832497435642,兴业银行(赛洛城社区支行),金山大道沿海赛洛城52幢1层8A号房,湖北省,武汉市,三店,金融保险服务;银行;兴业银行
114.0235058804758,30.652388758652787,中国农业银行24小时自助银行(武汉走马岭支行),东西湖大道3828号,湖北省,武汉市,走马岭,金融保险服务;自动提款机;中国农业银行ATM
114.14853462057224,30.62107086648217,汉口银行(舵落口支行),东西湖大道2733号附21号,湖北省,武汉市,吴家山,金融保险服务;银行;银行
114.21726343131753,30.635763190185994,兴业银行(丽景湾社区支行),金南一路卧龙丽景湾蓝山苑7栋N单元,湖北省,武汉市,,金融保险服务;银行;兴业银行
114.25131964707181,30.64811832851649,湖北银行(将军路社区支行),将军一路翠林雅居18号,湖北省,武汉市,,金融保险服务;银行;银行
114.24764555977174,30.654145426438518,武汉农村商业银行(将军路支行),将军一路将军新村二期6号楼1楼,湖北省,武汉市,,金融保险服务;银行;农村商业银行
114.22957738657277,30.63916512720719,中国邮政储蓄银行(常青花园营业所),华中科技大学同济医学院附属普爱医院西南门西北110米,湖北省,武汉市,常青,金融保险服务;银行;中国邮政储蓄银行
114.21720217808992,30.660526360677576,武汉农村商业银行(马池支行),汉口印象东北门东北180米,湖北省,武汉市,,金融保险服务;银行;农村商业银行
114.13811382402547,30.631489111381015,中国光大银行(怡华逸天地社区支行),三秀路怡华逸天地1栋1-2层1商号,湖北省,武汉市,吴家山,金融保险服务;银行;中国光大银行
114.13939660417412,30.626159373602814,中国建设银行24小时自助银行(东西湖支行),东吴大道1043号,湖北省,武汉市,吴家山,金融保险服务;自动提款机;中国建设银行ATM
114.23799673720501,30.65217079166225,中国光大银行(金银潭社区支行),金银潭广场东北门旁(金银潭地铁站B2口步行70米),湖北省,武汉市,常青,金融保险服务;银行;中国光大银行
114.20342612609032,30.633752704562767,招商银行24小时自助银行(航达自助银行),鑫桥三路8号,湖北省,武汉市,金银湖,金融保险服务;自动提款机;招商银行ATM
114.14989157656898,30.61899411482041,中国邮政储蓄银行(额头湾邮局营业部),东西湖大道特1号舵落口大市场综合楼东3栋,湖北省,武汉市,,金融保险服务;银行;中国邮政储蓄银行
114.2337112570762,30.641109240312595,渤海银行(武汉常青支行),常青花园中路90号附10号,湖北省,武汉市,常青,金融保险服务;银行;银行
114.14465194954018,30.63283725846052,中国农业发展银行(东西湖区支行),二雅路307号(二雅路地铁站A口步行400米),湖北省,武汉市,吴家山,金融保险服务;银行;银行
114.21668598538163,30.651886673029363,交通银行24小时自助银行(武汉金银湖支行),金银湖三江马池路航天银湖湾1栋附近,湖北省,武汉市,,金融保险服务;自动提款机;交通银行ATM
114.15292507655737,30.653362977081226,中国民生银行(临空港社区支行),径河街金北一路77号武汉二十四城(北区)A3栋/单元1层22商号23商号,湖北省,武汉市,三店,金融保险服务;银行;中国民生银行
114.13957714892221,30.625300019438026,浙商银行(武汉临空港支行),东吴大道1116号海林广场F1层A1011、A1011-1,湖北省,武汉市,吴家山,金融保险服务;银行;银行
114.21892344158796,30.6350710493961,中国邮政储蓄银行(东方马城支行),金南一路5-9号(园博园北地铁站F口步行270米),湖北省,武汉市,,金融保险服务;银行;中国邮政储蓄银行
114.13781098690768,30.632186342673233,浦发银行(三秀社区支行),三秀路怡华逸天地4栋1层4107号,湖北省,武汉市,吴家山,金融保险服务;银行;上海浦东发展银行
114.27039498740405,30.67535335676034,中国工商银行24小时自助银行(武汉宏图大道支行),武汉嘉禾医院东南门东50米,湖北省,武汉市,,金融保险服务;自动提款机;中国工商银行ATM
114.22572793363346,30.640371243857295,中国银行ATM(常青北路),常青北路240-1号,湖北省,武汉市,常青,金融保险服务;自动提款机;中国银行ATM
114.13721836384403,30.644755059018046,武汉农村商业银行(黄狮海支行),径河街三店中路192号金地悦海湾二期4栋2单元6-7商号,湖北省,武汉市,三店,金融保险服务;银行;农村商业银行
114.14129264083553,30.6139664396163,武汉农村商业银行(农贸市场支行),革新大道南城市空间2栋1层14-15室,湖北省,武汉市,吴家山,金融保险服务;银行;农村商业银行
114.10053705188794,30.620382335299926,中国农业银行24小时自助银行(五金城支行),东西湖大道5661号,湖北省,武汉市,,金融保险服务;自动提款机;中国农业银行ATM
114.22709416725964,30.637317447956,中国建设银行24小时自助银行(武汉金山支行),康居二路2号,湖北省,武汉市,常青,金融保险服务;自动提款机;中国建设银行ATM
114.21703988715349,30.660484221234256,兴业银行(金银湖社区支行),二号路与马池西路交叉口东北60米,湖北省,武汉市,,金融保险服务;银行;银行
114.13335035172028,30.626369010347414,交通银行24小时自助银行(东西湖支行),东吴大道833号(原84号中百仓储左侧),湖北省,武汉市,吴家山,金融保险服务;自动提款机;交通银行ATM
114.13629470770879,30.62575168024353,中国邮政储蓄银行24小时自助银行(吴家山支行),西湖广场1层,湖北省,武汉市,吴家山,金融保险服务;自动提款机;中国邮政储蓄银行ATM
114.13610826785344,30.62542053207989,武汉东西湖扬子村镇银行,西湖广场西门旁,湖北省,武汉市,吴家山,金融保险服务;银行;银行
114.24729334340313,30.654544294471812,中国农业银行24小时自助银行(将军路支行),将军一路,湖北省,武汉市,,金融保险服务;自动提款机;中国农业银行ATM
114.13238842323315,30.62179350549181,兴业银行24小时自助银行(东西湖支行),五环大道98号(五环大道地铁站出入口步行220米),湖北省,武汉市,长青,金融保险服务;自动提款机;兴业银行ATM
114.02343004226388,30.65255888860083,中国邮政储蓄银行24小时自助银行,东西湖大道3828号东南方向10米,湖北省,武汉市,走马岭,金融保险服务;自动提款机;中国邮政储蓄银行ATM
114.14004802151764,30.64061532323677,中国邮政储蓄银行24小时自助银行(易家湾营业所),吴北路360附近,湖北省,武汉市,三店,金融保险服务;自动提款机;中国邮政储蓄银行ATM
114.13226106386595,30.622385078911794,汉口银行24小时自助银行(临空港大道支行),亿达华庭北门旁(五环大道地铁站出入口步行280米),湖北省,武汉市,吴家山,金融保险服务;自动提款机;自动提款机
114.13236534784305,30.622016380596072,交通银行24小时自助银行(东西湖支行),吴家山临空港大道158号附3号,湖北省,武汉市,吴家山,金融保险服务;自动提款机;交通银行ATM
114.23154216608286,30.647357601235313,中国农业银行24小时自助银行,常青花园常青花园四小区商网2号门面,湖北省,武汉市,常青,金融保险服务;自动提款机;中国农业银行ATM
114.13908939155347,30.630872915413526,中国邮政储蓄银行24小时自助银行(东西湖区支行),吴中街468号,湖北省,武汉市,吴家山,金融保险服务;自动提款机;中国邮政储蓄银行ATM
114.23058205661972,30.646372556330768,中国工商银行24小时自助银行(常青花园支行),学府北路37号,湖北省,武汉市,常青,金融保险服务;自动提款机;中国工商银行ATM
114.14801129357315,30.619700510277273,中国农业银行24小时自助银行(武汉舵落口支行),舵落口农产品批发市场综合楼西一栋,湖北省,武汉市,,金融保险服务;自动提款机;中国农业银行ATM
114.14793515394537,30.618898704945945,中国银行(东吴大道支行),东西湖大道特1号(额头湾农贸大市场综合楼C栋),湖北省,武汉市,,金融保险服务;银行;中国银行
114.14545325975214,30.6312852776186,汉口银行24小时自助银行(东西湖支行),吴中街556号,湖北省,武汉市,吴家山,金融保险服务;自动提款机;自动提款机
114.14258303269605,30.62561380071562,武汉农村商业银行24小时自助银行(东西湖支行),东吴大道1101号,湖北省,武汉市,吴家山,金融保险服务;自动提款机;农村商业银行ATM
114.01723277029875,30.77851148978089,中国邮政储蓄银行(东山支行),东山新街478号,湖北省,武汉市,东山,金融保险服务;银行;中国邮政储蓄银行
114.11773484370302,30.73078954799514,中国邮政储蓄银行(柏泉支行),东正街85号,湖北省,武汉市,柏泉,金融保险服务;银行;中国邮政储蓄银行
114.22777004783829,30.638069548897608,浦发银行24小时自助银行(常青花园社区支行),康居二路25号,湖北省,武汉市,常青,金融保险服务;自动提款机;上海浦东发展银行ATM
114.11092898428568,30.627341194978484,武汉农村商业银行24小时自助银行(鑫城宜居支行),东吴大道1188号附6号,湖北省,武汉市,长青,金融保险服务;自动提款机;农村商业银行ATM
114.27252092358887,30.675191329674327,中国农业银行24小时自助银行,宏图大道8号(宏图大道地铁站B口步行230米),湖北省,武汉市,,金融保险服务;自动提款机;中国农业银行ATM
114.15204190915728,30.638292904914714,兴业银行24小时自助银行(武汉赛洛城社区支行),金山大道沿海赛洛城2008号52幢1层8A号房,湖北省,武汉市,三店,金融保险服务;自动提款机;兴业银行ATM
114.21702285054857,30.660549175625317,兴业银行24小时自助银行,马池西路与马池小路交叉口东北60米,湖北省,武汉市,,金融保险服务;自动提款机;兴业银行ATM
114.13564302569415,30.626272469569845,江城蜂巢华夏银行东西湖支行内,东吴大道1285号,湖北省,武汉市,吴家山,金融保险服务;银行;银行
114.14804042812906,30.619086812314855,中国银行24小时自助银行(额头湾分理处),东西湖大道特1号(额头湾农贸大市场综合楼C栋),湖北省,武汉市,,金融保险服务;自动提款机;中国银行ATM
114.15958871200755,30.681015759877685,武汉农村商业银行ATM(径河支行),十字东街13号,湖北省,武汉市,,金融保险服务;自动提款机;农村商业银行ATM
114.25056606135912,30.65174993525673,中国邮政储蓄银行(将军路邮政所),将军路53号附3号,湖北省,武汉市,,金融保险服务;银行;中国邮政储蓄银行
114.13561893616196,30.626603295531716,华夏银行24小时自助银行(武汉东西湖支行),吴家山东吴大道138号,湖北省,武汉市,吴家山,金融保险服务;自动提款机;华夏银行ATM
113.9280637117579,30.741404813447733,中国邮政储蓄银行(辛安渡支行),智康村78,湖北省,武汉市,,金融保险服务;银行;中国邮政储蓄银行
114.23829097706329,30.652574681833404,兴业银行24小时自助银行,金银潭地铁站B2口步行50米,湖北省,武汉市,常青,金融保险服务;自动提款机;兴业银行ATM
114.11494483935368,30.63904958777908,企税通财税,径河街道东西湖政务服务中心辅楼F106-4,湖北省,武汉市,,金融保险服务;银行;银行
114.13970847784219,30.625442171380016,浙商银行24小时自助银行(临空港支行),东吴大道1116号海林广场F1层,湖北省,武汉市,吴家山,金融保险服务;自动提款机;自动提款机
114.24761454345496,30.65415142783558,武汉农村商业银行24小时自助银行(将军路支行),将军路198号附10号,湖北省,武汉市,,金融保险服务;自动提款机;农村商业银行ATM
114.01301670500038,30.775529161496568,中国人民财产保险股份有限公司东西湖支公司(东山营销服务部),东山新街329号,湖北省,武汉市,东山,金融保险服务;保险公司;中国人民保险公司|金融保险服务;银行;银行
114.13594968355203,30.62752241642097,中国银行24小时自助银行(武汉东西湖支行),吴祁街78号,湖北省,武汉市,吴家山,金融保险服务;自动提款机;中国银行ATM
114.14257099684058,30.62565676288861,武汉农村商业银行(东西湖支行),东吴大道1101号,湖北省,武汉市,吴家山,金融保险服务;银行;农村商业银行
114.13574459385907,30.622724092063812,平安银行24小时自助银行,四明路兆丰花园小区,湖北省,武汉市,吴家山,金融保险服务;自动提款机;平安银行ATM
114.23452014099651,30.641283472578888,湖北银行24小时自助银行(武汉常青花园支行),常青花园中路90号附22号,湖北省,武汉市,常青,金融保险服务;自动提款机;自动提款机
114.14462716363431,30.629651553913945,中国民生银行24小时自助银行(武汉东西湖支行),二雅路46号天合新界6栋,湖北省,武汉市,吴家山,金融保险服务;自动提款机;中国民生银行ATM
114.14981336092676,30.618964987866885,中国邮政储蓄银行24小时自助银行(额头湾支行),东西湖大道特1号舵落口大市场综合楼东3栋,湖北省,武汉市,,金融保险服务;自动提款机;中国邮政储蓄银行ATM
114.1498104582745,30.617767471421544,亿升财税,2区4栋4号,湖北省,武汉市,,金融保险服务;银行;银行
113.94596951513859,30.69768148186741,中国邮政储蓄银行24小时自助银行(新沟营业所),后街43号,湖北省,武汉市,新沟,金融保险服务;自动提款机;中国邮政储蓄银行ATM
114.13254286655474,30.6209980549658,中国农业银行24小时自助银行(武汉吴家山支行),鸿达乐活城(五环大道地铁站出入口步行110米),湖北省,武汉市,吴家山,金融保险服务;自动提款机;中国农业银行ATM
114.15118986606488,30.611548448064276,恒准财务,舵落口大市场16区12栋5号,湖北省,武汉市,,金融保险服务;银行;银行
114.14596965161994,30.631453093200243,浙商银行,吴中街与二雅路交叉口东100米,湖北省,武汉市,吴家山,金融保险服务;银行;银行
114.14423156587705,30.62431910172804,中国农业发展银行,二雅路与东吴大道交叉口南约80米,湖北省,武汉市,吴家山,金融保险服务;银行;银行
114.15187423334183,30.651952698791007,邮政自助驿站(金北一路店),焦龙二路与焦龙北路交叉口东北40米,湖北省,武汉市,三店,金融保险服务;自动提款机;自动提款机
114.23375331357923,30.64100430186473,渤海银行24小时自助银行,公园环路与学府侧路交叉口东100米,湖北省,武汉市,常青,金融保险服务;自动提款机;自动提款机
114.26104632236134,30.550549009456248,中国工商银行(汉阳支行),鹦鹉大道35号(钟家村地铁站D口步行90米),湖北省,武汉市,鹦鹉村,金融保险服务;银行;中国工商银行
114.26052363147289,30.54737241894211,中国建设银行(武汉市汉阳支行),鹦鹉大道192号(钟家村地铁站D口步行340米),湖北省,武汉市,鹦鹉村,金融保险服务;银行;中国建设银行
114.22067210762084,30.534490434136927,中国银行武汉四新支行,书台路6号,湖北省,武汉市,,金融保险服务;银行;中国银行
114.20228689113297,30.5599247475762,招商银行汉阳支行,龙阳凯悦大厦B座(王家湾地铁站E口步行200米),湖北省,武汉市,王家湾,金融保险服务;银行;招商银行
114.26114010940606,30.55293612780294,招商银行(武汉钟家村支行),鹦鹉大道27号1层(钟家村地铁站E2口旁),湖北省,武汉市,钟家村,金融保险服务;银行;招商银行
114.19996685713876,30.566481090565123,中国工商银行(王家湾支行),汉阳大道744号(玉龙路地铁站C口步行370米),湖北省,武汉市,王家湾,金融保险服务;银行;中国工商银行
114.25648808845303,30.552317888016727,中国银行(武汉汉阳支行),钟家村地铁站B口步行380米,湖北省,武汉市,钟家村,金融保险服务;银行;中国银行
114.25910823149935,30.55247549638746,交通银行(武汉汉阳支行),汉阳大道140号(钟家村家乐福旁边),湖北省,武汉市,鹦鹉村,金融保险服务;银行;交通银行
114.21011553515525,30.554943673539903,湖北银行(武汉汉阳支行),芳草路18号附4号,湖北省,武汉市,王家湾,金融保险服务;银行;银行
114.20559736851204,30.54884310171558,兴业银行(汉阳支行),芳草路隆祥东街世纪龙城5号楼,湖北省,武汉市,王家湾,金融保险服务;银行;兴业银行
114.19456071765597,30.506670553357758,中国银行(武汉华中智谷支行),武汉设计广场西南1门旁,湖北省,武汉市,,金融保险服务;银行;中国银行
114.19845845587832,30.55220388214391,中信银行(武汉王家湾支行),龙阳大道76号九州通大厦A座麦迪森广场一楼,湖北省,武汉市,王家湾,金融保险服务;银行;中信银行
114.19635972948093,30.54716941460221,中国建设银行(武汉龙阳支行),龙阳大道特95号(陶家岭地铁站A口旁),湖北省,武汉市,升官渡,金融保险服务;银行;中国建设银行
114.22412485740679,30.508833266396852,中国农业银行(汉阳国博支行),鄂渚路10号附93-97号(国博新城泊雅居南门东50米),湖北省,武汉市,,金融保险服务;银行;中国农业银行
114.20301336808284,30.573827767682122,交通银行二桥支行,长江水资源保护科学研究所附近,湖北省,武汉市,王家湾,金融保险服务;银行;交通银行
114.21475532551277,30.51348443741063,中国工商银行(武汉四新南路支行),城投四新之光悦府6-商1,湖北省,武汉市,,金融保险服务;银行;中国工商银行
114.20235203984758,30.559953828791546,招商银行24小时自助银行(王家湾支行),龙阳大道武汉摩尔城(王家湾店)南侧约70米,湖北省,武汉市,王家湾,金融保险服务;自动提款机;招商银行ATM
114.20541431551932,30.56789717434981,中国建设银行(武汉郭茨口支行),二桥玫瑰园街108号华大大厦,湖北省,武汉市,王家湾,金融保险服务;银行;中国建设银行
114.20658054895799,30.548684439039125,招商银行(芳草路社区支行),水墨·清华2期西北门旁,湖北省,武汉市,七里庙,金融保险服务;银行;招商银行
114.2156379760651,30.525261674347135,中国建设银行(武汉四新北路支行),江城大道356号星光国际二期,湖北省,武汉市,,金融保险服务;银行;中国建设银行
114.19852935984905,30.56686082893601,中国建设银行(武汉玫瑰苑支行),汉阳大道778号玫瑰馨苑商铺,湖北省,武汉市,王家湾,金融保险服务;银行;中国建设银行
114.19864954094477,30.53345945773845,中国工商银行(四新北路支行),芳草路99号唔哈生活C馆,湖北省,武汉市,升官渡,金融保险服务;银行;中国工商银行
114.20628981181946,30.54983866767277,中国银行股份有限公司湖北省分行龙阳支行(爱心驿站),芳草路38号,湖北省,武汉市,王家湾,金融保险服务;银行;中国银行
114.20649938535074,30.54852138975825,中国工商银行(武汉芳草路支行),水墨·清华2期西北门旁,湖北省,武汉市,七里庙,金融保险服务;银行;中国工商银行
114.26133465034482,30.546445227676834,中信银行(武汉汉阳支行),建桥街鹦鹉大道137号附17、18、19号,湖北省,武汉市,钟家村,金融保险服务;银行;中信银行
114.25603802897159,30.55234708219593,中国农业银行(汉阳支行营业室),汉阳大道184号(归元寺路对面),湖北省,武汉市,钟家村,金融保险服务;银行;中国农业银行
114.25959067659485,30.547257011264556,湖北银行武汉钟家村支行,归元寺南路远洋T4写字楼一楼,湖北省,武汉市,钟家村,金融保险服务;银行;银行
114.21995670771898,30.559937161343438,中国建设银行(武汉铁桥支行),七里晴川1号附129号,湖北省,武汉市,七里庙,金融保险服务;银行;中国建设银行
114.21426917965935,30.562420737843297,中国农业银行(汉阳大道支行),汉阳大道658号附9号(十里铺地铁站c出口步行100米),湖北省,武汉市,七里庙,金融保险服务;银行;中国农业银行
114.19723756368798,30.504820264188407,中国工商银行(武汉经开智谷支行),华中电子商务产业园C1西北门南50米,湖北省,武汉市,,金融保险服务;银行;中国工商银行
114.25130818662213,30.525627641509523,中国工商银行(武汉鹦鹉洲支行),鹦鹉大道504附1号(前进村地铁站B口步行400米),湖北省,武汉市,鹦鹉村,金融保险服务;银行;中国工商银行|生活服务;生活服务场所;生活服务场所
114.20428426644818,30.562269673400284,中国农业银行(十里支行),十升路特2号(王家湾地铁站G口步行80米),湖北省,武汉市,,金融保险服务;银行;中国农业银行
114.20598874537423,30.566085580979877,汉口银行(江汉二桥支行个人征信报告自助查询),汉阳大道582号(海天欢乐购一楼),湖北省,武汉市,,金融保险服务;银行;银行
114.19796246743216,30.5033717936547,招商银行24小时自助银行,太子湖北路与蔷薇路交叉口东南140米,湖北省,武汉市,,金融保险服务;自动提款机;招商银行ATM
114.2081553319265,30.56746685376612,中国银行(江汉二桥支行),永丰路,湖北省,武汉市,,金融保险服务;银行;中国银行
114.20629015862865,30.56898593027725,中国工商银行(武汉江汉二桥支行),龙阳大道18号(王家湾地铁站L口步行410米),湖北省,武汉市,,金融保险服务;银行;中国工商银行
114.20953565856159,30.516340657077656,中国建设银行(武汉江城大道支行),和昌中心,湖北省,武汉市,,金融保险服务;银行;中国建设银行
114.24359379227704,30.55359329009378,中国建设银行(武汉新村支行),五里墩街办事处汉阳大道423号,湖北省,武汉市,五里墩,金融保险服务;银行;中国建设银行
114.20454387759565,30.550405163207618,中国农业银行(武汉芳草路支行),龙兴东街15附1-附3号,湖北省,武汉市,王家湾,金融保险服务;银行;中国农业银行
114.20028385929143,30.55207661956537,武汉农村商业银行(龙阳支行),智慧大厦1层(龙阳村地铁站A口步行340米),湖北省,武汉市,王家湾,金融保险服务;银行;农村商业银行
114.26012858577079,30.548130398779147,汉口银行(汉阳支行),翠微路特1号宏阳大厦F1层,湖北省,武汉市,钟家村,金融保险服务;银行;银行
114.19839403060368,30.5668626257375,中国建设银行24小时自助银行(玫瑰苑支行),汉阳大道778号玫瑰馨苑,湖北省,武汉市,王家湾,金融保险服务;自动提款机;中国建设银行ATM
114.21898501394935,30.56016720745468,交通银行(武汉七里支行),七里晴川1附120号(十里铺地铁站B口步行420米),湖北省,武汉市,七里庙,金融保险服务;银行;交通银行
114.19869203620846,30.552052283412742,汉口银行(龙阳大道支行),龙阳大道特8号九州通大厦1层,湖北省,武汉市,王家湾,金融保险服务;银行;银行
114.25974378681616,30.534301246615367,中国银行(武汉鹦鹉大道支行),鹦鹉大道世茂锦绣三期9号楼商铺1层15、16、21、22号,湖北省,武汉市,鹦鹉村,金融保险服务;银行;中国银行
114.1991476656938,30.53438789494423,中国建设银行武汉芳草路支行,芳草路99号纽宾凯十里铺城中村改造K10二期5号楼一层05116商铺,湖北省,武汉市,升官渡,金融保险服务;银行;银行
114.20658456092843,30.548647456844833,招商银行24小时自助银行(芳草路社区支行),水墨·清华2期西北门旁,湖北省,武汉市,七里庙,金融保险服务;自动提款机;招商银行ATM
114.19723254848499,30.504853246721265,中国工商银行24小时自助银行(智谷支行),太子湖北路与蔷薇路交叉口,湖北省,武汉市,,金融保险服务;自动提款机;中国工商银行ATM
114.197414449346,30.522756032472582,中国邮政储蓄银行(四新南路营业所),四新南路139号,湖北省,武汉市,升官渡,金融保险服务;银行;中国邮政储蓄银行
114.22066886833693,30.56043160661823,中国银行(铁桥村支行),汉阳大道642号附11号,湖北省,武汉市,七里庙,金融保险服务;银行;中国银行
114.21859031676459,30.560244816633386,中国工商银行(武汉麒麟路支行),永丰乡汉阳大道汉桥村112-4-5号商铺,湖北省,武汉市,七里庙,金融保险服务;银行;中国工商银行
114.18669905370669,30.542069309525992,中国邮政储蓄银行(龙阳支行),保利香颂二期东南门西南170米,湖北省,武汉市,升官渡,金融保险服务;银行;中国邮政储蓄银行
114.20808547067419,30.552550024530014,中国光大银行(武汉汉阳支行),芳草路18号十里景秀10栋1层,湖北省,武汉市,王家湾,金融保险服务;银行;中国光大银行
114.20427022943389,30.56233063277643,中国农业银行24小时自助银行(十里支行),汉阳大道687号汉商21世纪购物中心1F层,湖北省,武汉市,,金融保险服务;自动提款机;中国农业银行ATM
114.2613726952751,30.545881394526916,平安银行(武汉汉阳支行),鹦鹉大道137号附789 1011 1213,湖北省,武汉市,鹦鹉村,金融保险服务;银行;平安银行
114.20097450853831,30.551938665559554,平安银行(武汉王家湾支行),龙兴东街1号1层附23号,湖北省,武汉市,王家湾,金融保险服务;银行;平安银行
114.22442800743642,30.558978103908323,中国民生银行(汉阳支行),乐福园1层(七里庙地铁站A口步行90米),湖北省,武汉市,七里庙,金融保险服务;银行;中国民生银行
114.24449750326816,30.540727669784037,中国农业银行(马鹦路支行),马鹦路189号附4号(广电·兰亭熙园东北2门旁),湖北省,武汉市,五里墩,金融保险服务;银行;中国农业银行
114.21466906853874,30.526176377030975,汉口银行(四新北路社区支行),江城大道356号星光国际二期1层商铺,湖北省,武汉市,,金融保险服务;银行;银行
114.20864364881969,30.55266767705611,华夏银行(武汉汉阳支行),芳草路18号十里景秀小区10号楼商铺1层,湖北省,武汉市,王家湾,金融保险服务;银行;华夏银行
114.20667893661152,30.569842123799994,中国农业银行(武汉江汉二桥支行),江汉二桥街龙阳大道12号,湖北省,武汉市,,金融保险服务;银行;中国农业银行
114.22109314299503,30.518988747781645,中国建设银行(武汉大桥支行),梅林三街中铁世纪金桥二期A-4地块6号楼2-3号邻街商铺一层门面,湖北省,武汉市,洲头,金融保险服务;银行;中国建设银行
114.20371788567208,30.57493433243809,中国邮政储蓄银行(武汉市开发区支行),琴台大道1058号滨江万科里,湖北省,武汉市,王家湾,金融保险服务;银行;中国邮政储蓄银行
114.20110660724016,30.55440100380783,中国邮政储蓄银行(芳草路营业所),龙阳村地铁站A口旁,湖北省,武汉市,王家湾,金融保险服务;银行;中国邮政储蓄银行
114.20050209017691,30.50910983264872,兴业银行(沌口支行),碧桂园泰富国际一期12号楼一层,湖北省,武汉市,,金融保险服务;银行;兴业银行
114.26148469627111,30.545744369003966,浦发银行(汉阳支行),拦江路186号(拦江路地铁站A口步行270米),湖北省,武汉市,鹦鹉村,金融保险服务;银行;上海浦东发展银行
114.20752058146378,30.571955431438045,中国邮政储蓄银行(二桥营业所),桥西村6号附近,湖北省,武汉市,王家湾,金融保险服务;银行;中国邮政储蓄银行
114.20951260869266,30.516360623043756,中国建设银行股份有限公司武汉江城大道支行爱心驿站(工会驿站),江城大道和昌都汇华府商铺,湖北省,武汉市,,金融保险服务;银行;中国建设银行
114.22399627245171,30.559831485425274,汉口银行(汉阳大道支行),七里庙地铁站A口步行200米,湖北省,武汉市,五里墩,金融保险服务;银行;银行
114.20650174588606,30.56756271779087,中国民生银行(龙阳支行),龙阳大道19号苹果甸(王家湾地铁站K口步行320米),湖北省,武汉市,,金融保险服务;银行;中国民生银行
114.25881187114209,30.533365078618452,中国建设银行(锦绣长江支行),鹦鹉大道271号附1号,湖北省,武汉市,鹦鹉村,金融保险服务;银行;中国建设银行
114.26216129671022,30.537869561161173,中国农业银行(鹦鹉大道支行),鹦鹉大道243号(滨江大道192号世茂锦绣长江4期),湖北省,武汉市,鹦鹉村,金融保险服务;银行;中国农业银行
114.262077358189,30.537276813103556,广发银行(汉阳支行),鹦鹉大道249号(马鹦路地铁站A口步行280米),湖北省,武汉市,鹦鹉村,金融保险服务;银行;广发银行
114.26954715188342,30.55033846464057,中国银行(武汉显正支行),建桥街办事处阳新路3号,湖北省,武汉市,建桥,金融保险服务;银行;中国银行
114.19431261613747,30.512138507204874,武汉农村商业银行(商务城支行),芙蓉路3号,湖北省,武汉市,升官渡,金融保险服务;银行;农村商业银行
114.18683389821771,30.54805751904794,湖北银行(武汉陶家岭社区支行),康达街与龙阳湖东路交叉口,湖北省,武汉市,升官渡,金融保险服务;银行;银行
114.20960479709565,30.516407719804626,中国建设银行24小时自助银行,江城大道辅路与四新南路辅路交叉口北80米,湖北省,武汉市,,金融保险服务;自动提款机;中国建设银行ATM
114.26668280347747,30.543569275191555,招商银行(武汉鹦鹉花园社区支行),拦江路193号鹦鹉花园39-3-1-1号,湖北省,武汉市,鹦鹉村,金融保险服务;银行;招商银行
114.25759491536287,30.532252080400145,武汉农村商业银行(汉阳支行),鹦鹉大道271号(建港地铁站C口步行380米),湖北省,武汉市,鹦鹉村,金融保险服务;银行;农村商业银行
114.22216942774232,30.524529892651817,武汉农村商业银行(四新北路支行),鲤鱼洲家园西南门旁,湖北省,武汉市,洲头,金融保险服务;银行;农村商业银行
114.24537348449239,30.547368408262116,中国农业银行(武汉动物园支行),动物园路68附28号水岸人家,湖北省,武汉市,五里墩,金融保险服务;银行;中国农业银行
114.21917507328084,30.551706329507734,中国邮政储蓄银行(七里庙支行),七里二村123号,湖北省,武汉市,七里庙,金融保险服务;银行;中国邮政储蓄银行
114.2436177562954,30.55420407892994,中国工商银行(五里支行),汉阳大道390-392号,湖北省,武汉市,五里墩,金融保险服务;银行;中国工商银行
114.24051727819895,30.53240715448428,中国建设银行(高龙支行),汉绣博物馆东北门西南110米,湖北省,武汉市,洲头,金融保险服务;银行;中国建设银行
114.24332711498245,30.54767931343991,中国工商银行(马沧湖支行),马沧湖路81号,湖北省,武汉市,五里墩,金融保险服务;银行;中国工商银行
114.19995683170816,30.566498069818866,中国工商银行24h自助银行服务,汉阳大道二桥小区西区G组团101栋1层1-5号,湖北省,武汉市,王家湾,金融保险服务;自动提款机;中国工商银行ATM
114.20990808862675,30.555135359142255,武汉农村商业银行(十里支行),十里景秀16号,湖北省,武汉市,王家湾,金融保险服务;银行;农村商业银行
114.21484737963249,30.52650246025934,中国光大银行星光国际社区支行,江城大道356号博大星光天地项目A3地块1栋1层,湖北省,武汉市,,金融保险服务;银行;中国光大银行
114.26093902697181,30.54244982561146,中国工商银行(拦江路支行),鹦鹉大道222号(马鹦路地铁站C口步行180米),湖北省,武汉市,鹦鹉村,金融保险服务;银行;中国工商银行
114.19750961687183,30.523523934394248,汉口银行四新支行,四新南路618号海格公馆小区2栋2-商12-商22-商3,湖北省,武汉市,升官渡,金融保险服务;银行;银行
114.24591081131771,30.547306400128498,汉口银行(动物园路支行),五里墩街街道五里新村龙江庭院A版块1栋1层,湖北省,武汉市,五里墩,金融保险服务;银行;银行
114.25764591408468,30.53230703682891,个人征信查询武汉农村商业银行汉阳支行,鹦鹉大道271号(建港地铁站C口步行390米),湖北省,武汉市,鹦鹉村,金融保险服务;银行;银行
114.21693667221105,30.556603516451318,武汉农村商业银行(五里墩支行),墨水湖北路警苑小区1层,湖北省,武汉市,七里庙,金融保险服务;银行;农村商业银行
114.21706562988427,30.571412364537547,中国银行(武汉琴台支行),琴台大道820号5栋1层5号房,湖北省,武汉市,宗关,金融保险服务;银行;中国银行
114.21530520926362,30.561731069724882,湖北银行(十里铺社区支行),汉阳大道654-13附近,湖北省,武汉市,七里庙,金融保险服务;银行;银行
114.25158026896604,30.52574353007756,汉口银行(鹦鹉大道支行),鹦鹉大道新港西路一号龙湖春江彼岸商铺4-112至4-116商铺,湖北省,武汉市,鹦鹉村,金融保险服务;银行;银行
114.20553057103261,30.56793231535476,中国建设银行24小时自助银行(武汉郭茨口支行),玫瑰西园社区东北4门东100米,湖北省,武汉市,王家湾,金融保险服务;自动提款机;中国建设银行ATM
114.20620663230768,30.549799572864227,中国银行24小时自助银行(龙阳支行),龙阳1号南1门东100米,湖北省,武汉市,王家湾,金融保险服务;自动提款机;中国银行ATM
114.24489754653713,30.519919389928756,中国邮政储蓄银行(建港营业所),鹦鹉街办事处鹦鹉大道560号前进村车站,湖北省,武汉市,鹦鹉村,金融保险服务;银行;中国邮政储蓄银行
