奶茶店名称,地址,纬度,经度
蜜雪冰城(磨山景区店),鲁磨路665号磨山景区南门驿站3栋02号,30.550254,114.4144
古茗(光谷沃德中心店),沃德中心2-117,30.493676,114.515887
古茗(光谷世界城店),珞喻路766号世界城广场B1,30.511842,114.411581
茶百道(未来城店),珞狮南路147号未来城BC栋裙楼1层19号,30.531362,114.359602
蜜雪冰城(二中店),中山大道1560号,30.611522,114.315094
茶颜悦色(白沙天街A馆一楼店),白沙三路48号武汉白沙天街A馆A-1F-16号,30.481592,114.299297
1点点(武汉大学正门店),珞珈山路88号,30.537853,114.362232
茶百道(群星城店),福星惠誉·群星城20号负一楼,30.590797,114.356028
东茶(武汉江夏郑店街店),纸金路（郑店中学路口对面）,30.33528,114.268305
蜜雪冰城(户部巷店),湖北省武汉市武昌区民主路69号1-1号,30.552766,114.304517
蜜雪冰城(沃德中心店),东湖新技术开发区高新大道780号光谷新汇2-1-13,30.493496,114.515957
蜜雪冰城(梨园店),湖北省武汉市武昌区沿湖大道20号,30.581,114.382129
茶百道(江汉路店),江汉一路璇宫电影院对面,30.587071,114.296823
蜜雪冰城(武汉中学店),粮道街220号乙单元1层2室,30.552771,114.318523
茶颜悦色(摩尔城店),龙阳湖北路摩尔城B1楼,30.564459,114.214552
古茗(光谷烽云慧城店),九峰街道烽云慧城小区商7-1-16,30.474115,114.489996
茶颜悦色(花园道店),北湖街道青年路308号花园道一层C102室,30.601556,114.272349
1点点(汉口火车站店),汉口站西路汉口火车站地铁大厅负一楼CD出口,30.6212,114.260731
喜茶(荟聚中心店),长宜路1号荟聚中心L2层（宜家中庭）,30.623419,114.173137
蜜雪冰城(中南店),中南一路3号嘉园大厦1、2栋-1层1室13-15号、1-3号,30.543692,114.338613
茶颜悦色(取水楼店),新华路213号Z·YSTREET中英街1号楼1楼附5号,30.599363,114.279046
古茗(东湖景园店),欢乐大道86号东湖景园A区3号楼121号商,30.58963,114.381731
茶百道(武汉大学正门店),珞南街明家湾武大路66号,30.538397,114.362983
喜茶(武汉天地壹方南馆店),中山大道武汉天地壹方南馆一楼102商铺,30.614517,114.315766
古茗(中南财大小吃街店),南湖大道政院小区264栋一楼门面,30.48122,114.390613
茶百道(光谷生物城店),高新大道666号光谷生物城e区S5-103号,30.488149,114.486224
古茗(华中农业大学店),华中农业大学梧桐路步行街1附16225,30.480966,114.356544
茶百道(湖北经济学院店),杨桥湖大道梁山头商业E111号,30.426974,114.436795
茶趣奶茶店,湖北省武汉市武昌区螃蟹岬地铁站昙华林湖北中医药大学篮球场19栋宿舍旁,30.55689,114.318302
功夫茶(东西湖店),湖北省武汉市东西湖区吴中街232号,30.635841,114.140216
蜜雪冰城(街道口店),珞狮路未来城B、C栋负1楼25室,30.531889,114.359774
茶百道(幸福路中学店),新福路92附6,30.580116,114.032012
茶百道(经开永旺超市店),武汉经济技术开发区江城大道408号永旺超市第一楼层Z-3号商铺,30.509483,114.212358
蜜雪冰城(三店街店),三店街店柳路7号,30.933274,114.802005
1点点(街道口创意城店),珞喻路35号银泰创意城8层013-A,30.532892,114.36262
港饮之港(梅苑店),文安街地铁紫阳城梅中区间2栋1层11号,30.536798,114.33607
古茗(文华学院店),文化路文华学院5号铺,30.503105,114.443269
茶百道(万科未来中心店),汉阳大道408号万科未来中心VFC4楼10号,30.559952,114.251032
吾饮良品水果茶(武广店),解放大道872号循礼门天桥下,30.59034,114.289223
喜茶(武汉街道口未来城店),珞狮南路147号,30.531494,114.359664
黄鹤风新式奶茶(新福路店),湖北省武汉市蔡甸区新福路13号新福茂·中央广场底商F1,30.587326,114.039594
M1-奶茶店,湖北省武汉市洪山区九峰街道光谷高新大道666号武汉药明康德新药开发有限公司芒果餐厅(光谷生物城店),30.489545,114.476045
茶颜悦色(武汉大汉口城店),水塔街中山大道539号(水塔)生产综合楼6第一层1-3商铺,30.584889,114.296949
友佳奶茶,武汉市黄陂区横路街黄陂木兰文化生态旅游区,31.101587,114.359507
小源奶茶,武汉市汉阳区凤仪路绿地悦澜湾,30.533786,114.222158
CoCo都可(地铁中南店),中南路9号负1楼,30.54294,114.338672
茗典佳咖啡奶茶,武汉市黄陂区汉口北大道汉口北国际商品交易中心,30.709067,114.325167
米小伊的奶茶店(财大店),南湖大道政院小区256号,30.481259,114.391392
1点点(文华学院店),文华路祥和雅居9栋对面临街商6号,30.503106,114.443304
茶百道(未来科技城店),龙山溪二路北大资源山水年华二期28号,30.501337,114.545196
真茶屋·0奶精(街道口未来城店),珞狮路未来城购物公园底商（近街道口地铁站L出口）,30.531035,114.359399
CHAGEE霸王茶姬(武汉荟聚中心店),长宜路1号荟聚中心5号门2楼竹叶海中庭（迪卡侬对面）,30.622602,114.172927
棋牌奶茶,武汉市汉阳区高龙路新城丽景-B区,30.538239,114.255919
only love唯爱奶茶店(华中农业大学店),武汉市洪山区厚德路华中农业大学,30.479226,114.370473
书亦烧仙草(黄陂广场店),黄陂广场步行街6号商亭,30.885881,114.382069
奶茶养生茶,武汉市江岸区航道街岱山佳苑,30.67219,114.33412
大拇指奶茶店(软件园店),软件园拿铁公寓30号,30.478027,114.412492
蜜雪冰城(地大未来城店),湖北省武汉市东湖新技术开发区锦程街68号中国地质大学(未来城校区),30.46167,114.624764
古茗(湖北经济学院店),藏龙岛杨桥湖大道梁山头商业街A109店面,30.426507,114.437886
蜜雪冰城(前川欣城店),湖北省武汉市黄陂区前川街道前川街前川大道以北、石阳街以东商住楼(前川欣城二期)1—3号楼、1—2号配电房3栋/单元1层2号,30.872183,114.376269
古茗(湖北美术学院店),藏龙岛街道栗庙南路11号门面（湖北美术学院斜对面）,30.395294,114.426036
茶本茶冰粉奶茶(硚口店),长堤街196号,30.574461,114.264137
都咔奶茶汉堡(新集店),集宝路82号,30.901069,114.957562
茶百道(东湖景园店),东湖景园,30.590401,114.380269
阁楼·围炉煮茶·罐罐奶茶,黎黄陂路23号（虎璞咖啡楼上）,30.593093,114.306124
吾饮良品水果茶(美院店),藏龙岛栗庙新村湖北美术学院对面小17号,30.394576,114.426507
蜜雪冰城(跃进家园店),跃进家园A区还建房4号楼底商2号,30.650075,114.273148
茶百道(文华学院店),谷创业街佳园路祥和雅居10栋对面临街,30.503246,114.443592
蜜雪冰城(花山中学店),东湖新技术开发区花山生态新城花城家园棠园2-S-5,30.52751,114.533501
蜜雪冰城(八大家花园店),建设三路25附1,30.631241,114.388281
四季花奶茶店,湖北省武汉市蔡甸区蔡甸实验高中,30.590687,114.024847
古茗(理工大南湖校区店),武汉理工大学南湖校区270号-2商铺,30.516005,114.33551
卷卷奶茶店(蔡甸总店),武汉市蔡甸区树藩大街文兴花园西侧,30.586459,114.027852
CoCo都可(黄陂广场店),前川街黄陂大道黄陂广场地上第一层2191F1F0018-B号铺位,30.886843,114.381233
蜜雪冰城(长江大学店),连通路长江大学华林学生公寓48号,30.541696,114.033996
蜜雪冰城(保利商业街店),圆梦路圆梦湾酒楼对面,30.696278,114.584723
蜜雪冰城(武生院店),汉施路武汉生物工程学院内,30.718124,114.536031
蜜雪冰城(财税学院店),白沙洲大道519号湖北财税职业学院,30.519914,114.305034
书亦烧仙草(生物城店),高新大道666号光谷生物城创新基地E区s6-103号商铺,30.487872,114.486799
1点点(万科未来中心店),湖北省武汉市汉阳区汉阳大道408号(地铁4号线五里墩站C出口)万科未来中心VFCB1,30.560571,114.250616
古茗(城市职业学院店),武汉城市职业学院南校区南李路127号附3,30.44546,114.31992
书亦烧仙草(梅南山居店),庙山产业园梅南山居商网35号一楼,30.42034,114.379385
吾饮良品水果茶(前川欣城店),前川欣城一期8栋1-2层3室,30.871858,114.376668
书亦烧仙草(惠民苑店),永丰街黄金口五村特1号惠民苑三期经济适用房33栋1-2层3-28室,30.591674,114.176745
港饮之港(湖工店),军威路,30.488026,114.314811
小镇奶茶,武汉市蔡甸区玉贤路武汉市蔡甸区玉贤镇初级中学东北侧约140米,30.530045,113.991487
